name,rating,user_ratings_total,types,address,latitude,longitude,cluster
자티고개,3.8,21.0,"['tourist_attraction', 'park', 'point_of_interest', 'establishment']",대전 유성구 덕명동 산 27,36.3315394,127.268247,0
무궁화학습원,4.3,136.0,"['park', 'tourist_attraction', 'point_of_interest', 'establishment']",충남 계룡시 신도안면 용동리 99-1,36.3247222,127.2447222,0
성북동산림욕장,4.0,20.0,"['tourist_attraction', 'point_of_interest', 'establishment']",대전 유성구 성북동 산 72-3,36.3153522,127.2775277,0
동월계곡,4.1,55.0,"['tourist_attraction', 'point_of_interest', 'establishment']",충남 공주시 반포면 학봉리 794-57,36.3503263,127.2557262,0
계룡산국립공원 수통골지구,4.5,3153.0,"['tourist_attraction', 'park', 'point_of_interest', 'establishment']",대전 유성구 계산동 산 40,36.3451969,127.2888026,0
로봇공원,3.6,154.0,"['tourist_attraction', 'park', 'point_of_interest', 'establishment']",대전 유성구 구암동 668,36.3593285,127.3071359,5
두루봉근린공원,4.2,28.0,"['park', 'tourist_attraction', 'point_of_interest', 'establishment']",대전 유성구 지족동 881-1,36.3778471,127.3226738,5
선사공원,4.3,10.0,"['park', 'tourist_attraction', 'point_of_interest', 'establishment']",대전 유성구 지족동 881-1,36.3779631,127.3226913,5
반석어린이공원,4.1,21.0,"['park', 'tourist_attraction', 'point_of_interest', 'establishment']",대전 유성구 반석동 655,36.3896282,127.3146917,5
대전선사박물관,4.2,160.0,"['museum', 'tourist_attraction', 'point_of_interest', 'establishment']",대전 유성구 노은동 523,36.37171379999999,127.3238858,5
은구비공원,4.7,615.0,"['park', 'tourist_attraction', 'point_of_interest', 'establishment']",대전 유성구 지족동 920,36.3740469,127.3241357,5
벽화마을 (새마을동네),3.6,39.0,"['tourist_attraction', 'point_of_interest', 'establishment']",대전 유성구 구암동 424-43,36.36034800000001,127.3202317,5
신성근린공원,4.6,5.0,"['park', 'tourist_attraction', 'point_of_interest', 'establishment']",대전 유성구 신성동 206,36.387377,127.3477792,5
대전 성북동 석조보살입상,4.3,12.0,"['tourist_attraction', 'point_of_interest', 'establishment']",대전 유성구 성북동 산 12-1,36.3143036,127.2937513,0
대전 칠성당 지석묘군,4.5,12.0,"['tourist_attraction', 'point_of_interest', 'establishment']",대전 유성구 교촌동 7-1,36.3124707,127.3094999,0
기성관,4.0,1.0,"['tourist_attraction', 'point_of_interest', 'establishment']",대전 유성구 원내동 213-4,36.2996668,127.3163607,0
대전 내동리 지석묘,5.0,3.0,"['tourist_attraction', 'point_of_interest', 'establishment']",대전 유성구 교촌동 11-1,36.3082328,127.3193959,0
천년근린공원,4.2,68.0,"['tourist_attraction', 'park', 'point_of_interest', 'establishment']",대전 유성구 상대동 485,36.3424676,127.3344411,0
방죽어린이공원,3.3,26.0,"['park', 'tourist_attraction', 'point_of_interest', 'establishment']",대전 유성구 구암동 618-1,36.3505499,127.3319134,5
들말어린이공원,3.3,9.0,"['park', 'tourist_attraction', 'point_of_interest', 'establishment']",대전 유성구 봉명동 568-20,36.353356,127.3355067,5
작은내수변공원,4.3,435.0,"['park', 'tourist_attraction', 'point_of_interest', 'establishment']",대전 유성구 봉명동 1057,36.3432682,127.3418225,5
용반들근린공원,4.1,23.0,"['park', 'tourist_attraction', 'point_of_interest', 'establishment']",대전 유성구 봉명동 1024,36.3521054,127.3420235,5
온천어린이공원,2.6,14.0,"['park', 'tourist_attraction', 'point_of_interest', 'establishment']",대전 유성구 봉명동 537-4,36.3561883,127.3443009,5
우산거리,,,"['tourist_attraction', 'point_of_interest', 'establishment']",대전 유성구 봉명동 625,36.35875920000001,127.3453096,5
은평공원,4.3,341.0,"['tourist_attraction', 'point_of_interest', 'establishment']",대전 서구 월평동 313,36.3595771,127.3628268,6
둔산대공원,4.5,272.0,"['park', 'tourist_attraction', 'point_of_interest', 'establishment']",대전 서구 만년동 396,36.367771,127.3886019,6
엑스포다리,4.5,1247.0,"['tourist_attraction', 'point_of_interest', 'establishment']",대전 유성구 도룡동 604,36.37271490000001,127.3879907,6
3·8의거 둔지미공원,4.0,44.0,"['park', 'tourist_attraction', 'point_of_interest', 'establishment']",대전 서구 둔산동 956,36.3571332,127.3754923,6
대전엑스포시민광장,4.5,3068.0,"['tourist_attraction', 'park', 'point_of_interest', 'establishment']",대전 서구 만년동 396,36.36756339999999,127.3879898,6
한국과학기술원 오리연못,4.6,329.0,"['tourist_attraction', 'point_of_interest', 'establishment']",대전 유성구 구성동 23,36.3682076,127.3625946,6
한빛탑,4.2,1480.0,"['tourist_attraction', 'point_of_interest', 'establishment']",대전 유성구 도룡동 3-1,36.3765465,127.388132,6
국립중앙과학관,4.5,5020.0,"['tourist_attraction', 'museum', 'point_of_interest', 'establishment']",대전 유성구 구성동 32-2,36.3755897,127.3766119,6
대전시립미술관,4.4,1236.0,"['tourist_attraction', 'museum', 'point_of_interest', 'establishment']",대전 서구 만년동 396,36.3667991,127.3857407,6
화폐박물관,4.3,724.0,"['museum', 'tourist_attraction', 'point_of_interest', 'establishment']",대전 유성구 가정동 35,36.3775,127.3705556,6
지질박물관,4.5,643.0,"['museum', 'tourist_attraction', 'point_of_interest', 'establishment']",대전 유성구 가정동 30,36.377519,127.362326,6
체육공원,4.2,90.0,"['park', 'tourist_attraction', 'point_of_interest', 'establishment']",대전 유성구 구성동 410-1,36.36621530000001,127.3667152,6
이응노미술관,4.4,549.0,"['tourist_attraction', 'art_gallery', 'museum', 'point_of_interest', 'establishment']",대전 서구 만년동 396,36.3668425,127.3870299,6
갈마공원,4.4,318.0,"['tourist_attraction', 'point_of_interest', 'establishment']",대전 서구 갈마동 820,36.3563554,127.3731037,6
대전 엑스포 과학공원,4.1,127.0,"['tourist_attraction', 'park', 'point_of_interest', 'establishment']",대전 유성구 도룡동 3-1,36.3777239,127.3863453,6
엑스포 음악분수,4.6,393.0,"['park', 'tourist_attraction', 'point_of_interest', 'establishment']",대전 유성구 도룡동 3-1,36.37560200000001,127.3880346,6
한밭수목원,4.6,3789.0,"['tourist_attraction', 'park', 'point_of_interest', 'establishment']",대전 서구 만년동 396,36.3683723,127.3880555,6
세고,,,"['tourist_attraction', 'point_of_interest', 'establishment']",대전 서구 둔산동 1095,36.3515381,127.3740298,6
청사숲,4.6,5.0,"['park', 'tourist_attraction', 'point_of_interest', 'establishment']",대전 서구 둔산동 930,36.3589084,127.3849082,6
김반의묘,4.8,4.0,"['tourist_attraction', 'point_of_interest', 'establishment']",대전 유성구 전민동 산 18-17,36.4018853,127.3943307,2
2012년 아름다운 숲 13회 수상지,5.0,1.0,"['tourist_attraction', 'point_of_interest', 'establishment']",대전 유성구 전민동 464-1,36.3999648,127.40791,2
상옥체육공원,4.2,159.0,"['park', 'tourist_attraction', 'point_of_interest', 'establishment']",대전 유성구 문지동 66,36.3891021,127.4061552,2
징검다리,5.0,1.0,"['tourist_attraction', 'point_of_interest', 'establishment']",대전 유성구 전민동 242,36.3995402,127.4121437,2
대전솔로몬로파크,4.4,416.0,"['tourist_attraction', 'amusement_park', 'point_of_interest', 'establishment']",대전 유성구 원촌동 224,36.3778352,127.3999531,2
숭현서원,4.0,22.0,"['tourist_attraction', 'point_of_interest', 'establishment']",대전 유성구 원촌동 산 35-1,36.3798254,127.4046556,2
아델,,,"['tourist_attraction', 'point_of_interest', 'establishment']",대전 유성구 관평동 1213,36.4221003,127.3931897,2
진잠근린공원,3.9,65.0,"['park', 'tourist_attraction', 'point_of_interest', 'establishment']",대전 유성구 원내동 358,36.294973,127.3205826,0
사랑의 오작교,3.5,2.0,"['tourist_attraction', 'point_of_interest', 'establishment']",대전 서구 도안동 2306,36.305899,127.3596016,3
정림동 갑천변,4.4,280.0,"['park', 'tourist_attraction', 'point_of_interest', 'establishment']",대전 서구 정림동 402,36.3054143,127.3611831,3
파평윤씨 서윤공파 고택,4.0,15.0,"['tourist_attraction', 'point_of_interest', 'establishment']",대전 서구 괴곡동 466,36.2847526,127.3514966,3
아델,,,"['tourist_attraction', 'point_of_interest', 'establishment']",대전 서구 정림동 584,36.304875,127.3642581,3
월평공원,4.4,76.0,"['park', 'tourist_attraction', 'point_of_interest', 'establishment']",대전 서구 월평동 산 36-4,36.3325248,127.3612166,6
변동근린공원,4.1,109.0,"['park', 'tourist_attraction', 'point_of_interest', 'establishment']",대전 서구 도마동 413-3,36.32599799999999,127.3745766,3
2014년 아름다운 숲 15회 수상지,5.0,3.0,"['tourist_attraction', 'point_of_interest', 'establishment']",대전 서구 도마동 산 7,36.3252938,127.3627435,3
수정재,3.2,15.0,"['tourist_attraction', 'point_of_interest', 'establishment']",대전 서구 변동 250,36.3295809,127.3709102,3
카운트다운,,,"['tourist_attraction', 'point_of_interest', 'establishment']",대전 서구 내동 산 3-6,36.3364465,127.3715707,6
시도,,,"['tourist_attraction', 'point_of_interest', 'establishment']",대전 서구 괴정동 71-18,36.3377896,127.3814684,6
명불허전,,,"['tourist_attraction', 'point_of_interest', 'establishment']",대전 서구 갈마동 956,36.3481416,127.3739066,6
상가천지,,,"['tourist_attraction', 'point_of_interest', 'establishment']",대전 서구 탄방동 674,36.3430211,127.3860398,6
보라매공원,4.2,711.0,"['park', 'tourist_attraction', 'point_of_interest', 'establishment']",대전 서구 탄방동 589,36.34818999999999,127.3846028,6
평화의소녀상,4.6,75.0,"['tourist_attraction', 'park', 'point_of_interest', 'establishment']",대전 서구 둔산동 1544-2,36.351462,127.3848368,6
뜨는회마루스시,,,"['tourist_attraction', 'point_of_interest', 'establishment']",대전 서구 둔산동 1476,36.3528585,127.3886659,6
시애틀공원,4.1,166.0,"['park', 'tourist_attraction', 'point_of_interest', 'establishment']",대전 서구 둔산동 1385,36.35545,127.3942805,6
도산서원,4.1,81.0,"['tourist_attraction', 'point_of_interest', 'establishment']",대전 서구 탄방동 220-1,36.3437141,127.3960264,6
폐허,,,"['tourist_attraction', 'point_of_interest', 'establishment']",대전 서구 탄방동 1289,36.3481954,127.3996717,6
꽃과 나비 벽화,5.0,1.0,"['tourist_attraction', 'point_of_interest', 'establishment']",대전 서구 용문동 261-14,36.3357418,127.3936666,3
철도 풍경 스팟,,,"['tourist_attraction', 'point_of_interest', 'establishment']",대전 중구 용두동 712-1,36.337633,127.4041933,3
어린이공원,3.9,40.0,"['park', 'tourist_attraction', 'point_of_interest', 'establishment']",대전 중구 태평동 368,36.3285645,127.3948458,3
구 대전형무소 터,3.6,22.0,"['tourist_attraction', 'point_of_interest', 'establishment']",대전 중구 중촌동 16-11,36.3373306,127.410184,3
대전솔로몬로파크,4.4,416.0,"['amusement_park', 'tourist_attraction', 'point_of_interest', 'establishment']",대전 유성구 원촌동 224,36.3778352,127.3999531,2
은진송씨 정려각,3.5,10.0,"['tourist_attraction', 'point_of_interest', 'establishment']",대전 대덕구 법동 205-5,36.3653832,127.4317367,4
송애당,3.8,52.0,"['tourist_attraction', 'point_of_interest', 'establishment']",대전 대덕구 중리동 115,36.3645777,127.4330144,4
회덕쌍청당,3.6,14.0,"['tourist_attraction', 'point_of_interest', 'establishment']",대전 대덕구 중리동 71-1,36.363689,127.4343476,4
계족산공원,4.4,116.0,"['park', 'tourist_attraction', 'point_of_interest', 'establishment']",대전 대덕구 법동 산 2-1,36.3772222,127.4408333,4
장동산림욕장,4.6,493.0,"['tourist_attraction', 'point_of_interest', 'establishment']",대전 대덕구 장동 산 61-2,36.4046565,127.446762,4
계족산성,4.5,772.0,"['tourist_attraction', 'point_of_interest', 'establishment']",대전 대덕구 장동 산 85,36.3947689,127.4536227,4
견두산성,3.6,17.0,"['tourist_attraction', 'point_of_interest', 'establishment']",대전 동구 효평동 산 83,36.3921304,127.4591778,4
장동계족산 농촌체험휴양마을,5.0,2.0,"['tourist_attraction', 'point_of_interest', 'establishment']",대전 대덕구 장동 81-1,36.4148201,127.4471954,2
성재산 전망대,,,"['tourist_attraction', 'point_of_interest', 'establishment']",대전 대덕구 장동 산 108-1,36.382717,127.4526759,4
효월드,4.2,44.0,"['tourist_attraction', 'point_of_interest', 'establishment']",대전 중구 안영동 71-1,36.2859869,127.3834148,3
뿌리공원,4.4,3081.0,"['park', 'tourist_attraction', 'point_of_interest', 'establishment']",대전 중구 침산동 364,36.2854269,127.3880835,3
사정공원,4.4,508.0,"['park', 'tourist_attraction', 'point_of_interest', 'establishment']",대전 중구 사정동 산 1-31,36.2996407,127.4097128,3
대전오월드플라워랜드,4.4,924.0,"['tourist_attraction', 'amusement_park', 'point_of_interest', 'establishment']",대전 중구 사정동 142,36.292673,127.3960712,3
오리골약수터,3.7,23.0,"['park', 'tourist_attraction', 'point_of_interest', 'establishment']",대전 서구 정림동 산 44,36.2941304,127.370318,3
대전오월드,4.2,6773.0,"['tourist_attraction', 'amusement_park', 'point_of_interest', 'establishment']",대전 중구 사정동 142,36.2886167,127.3969124,3
사정골 식물원,3.9,146.0,"['tourist_attraction', 'park', 'point_of_interest', 'establishment']",대전 중구 사정동 산 1-31,36.2987519,127.4092407,3
창계숭절사,4.3,11.0,"['tourist_attraction', 'point_of_interest', 'establishment']",대전 중구 안영동 567-7,36.2842998,127.3721616,3
서대전역광장,4.4,5.0,"['tourist_attraction', 'point_of_interest', 'establishment']",대전 중구 오류동 170-23,36.32258789999999,127.4044561,3
대흥공원,3.3,135.0,"['park', 'tourist_attraction', 'point_of_interest', 'establishment']",대전 중구 대흥동 160,36.3255824,127.4284326,1
대흥동 성당,4.7,206.0,"['tourist_attraction', 'church', 'place_of_worship', 'point_of_interest', 'establishment']",대전 중구 대흥동 189,36.32679499999999,127.4264075,1
서대전공원,4.2,1369.0,"['tourist_attraction', 'park', 'point_of_interest', 'establishment']",대전 중구 문화동 1-40,36.32143239999999,127.411666,3
대전중앙시장,4.2,6111.0,"['tourist_attraction', 'point_of_interest', 'establishment']",대전 동구 원동 51-1,36.3295329,127.4331895,1
육국,,,"['tourist_attraction', 'point_of_interest', 'establishment']",대전 중구 용두동 21-21,36.3241232,127.412944,3
서대전네거리 왕버들,4.0,1.0,"['tourist_attraction', 'point_of_interest', 'establishment']",대전 중구 문화동 1-225,36.3219422,127.4117135,3
양지근린공원,4.4,228.0,"['tourist_attraction', 'park', 'point_of_interest', 'establishment']",대전 중구 선화동 362-97,36.32478100000001,127.4159008,1
대전 충청남도청 구 본관,4.4,14.0,"['tourist_attraction', 'point_of_interest', 'establishment']",대전 중구 선화동 287-2,36.32684079999999,127.4199207,1
대전아쿠아리움,4.0,2052.0,"['aquarium', 'tourist_attraction', 'point_of_interest', 'establishment']",대전 중구 대사동 198-14,36.3099586,127.421068,1
테미공원,4.4,424.0,"['park', 'tourist_attraction', 'point_of_interest', 'establishment']",대전 중구 대흥동 326-54,36.31936080000001,127.4217667,1
충남도지사공관,4.4,42.0,"['tourist_attraction', 'point_of_interest', 'establishment']",대전 중구 대흥동 326-67,36.32061059999999,127.4232943,1
대전여중 강당,4.0,1.0,"['tourist_attraction', 'point_of_interest', 'establishment']",대전 중구 대흥동 418-1,36.3255268,127.4258217,1
대전창작센터,4.1,56.0,"['tourist_attraction', 'point_of_interest', 'establishment']",대전 중구 은행동 161,36.32677650000001,127.4273373,1
으능정이 문화의 거리,4.3,95.0,"['tourist_attraction', 'point_of_interest', 'establishment']",대전 중구 은행동 330,36.3283766,127.4282393,1
대전스카이로드,4.2,2741.0,"['tourist_attraction', 'point_of_interest', 'establishment']",대전 중구 은행동 330,36.32823570000001,127.4283342,1
목척교,4.0,827.0,"['tourist_attraction', 'point_of_interest', 'establishment']",대전 동구 중동 318-2,36.3299152,127.4292657,1
한밭교육박물관,4.3,115.0,"['tourist_attraction', 'museum', 'point_of_interest', 'establishment']",대전 동구 삼성동 113-1,36.33738220000001,127.4287792,1
대전역광장,4.1,10.0,"['tourist_attraction', 'point_of_interest', 'establishment']",대전 동구 정동 1-1,36.3321424,127.4333556,1
대전역동광장,3.9,510.0,"['tourist_attraction', 'point_of_interest', 'establishment']",대전 동구 소제동 293-9,36.3325844,127.4360351,1
대동 하늘공원,4.1,1527.0,"['tourist_attraction', 'park', 'point_of_interest', 'establishment']",대전 동구 자양동 20-99,36.33248469999999,127.4514017,1
대전대학교박물관,4.0,24.0,"['museum', 'tourist_attraction', 'point_of_interest', 'establishment']",대전 동구 용운동 96-3,36.3363269,127.4614366,1
비래사,4.2,90.0,"['tourist_attraction', 'point_of_interest', 'establishment']",대전 대덕구 비래동 468,36.373077,127.4509847,4
Mahesh,4.5,2.0,"['tourist_attraction', 'point_of_interest', 'establishment']",대전 대덕구 송촌동 463,36.3652167,127.442319,4
동춘당공원,4.3,679.0,"['park', 'tourist_attraction', 'point_of_interest', 'establishment']",대전 대덕구 송촌동 463,36.36568889999999,127.4417913,4
삼매당,3.0,1.0,"['tourist_attraction', 'point_of_interest', 'establishment']",대전 동구 가양동 11-11,36.3458107,127.4561353,4
남간정사,4.1,69.0,"['tourist_attraction', 'park', 'point_of_interest', 'establishment']",대전 동구 가양동 3,36.34772259999999,127.4566344,4
우암사적공원,4.4,832.0,"['park', 'tourist_attraction', 'point_of_interest', 'establishment']",대전 동구 가양동 3,36.34782409999999,127.4567871,4
장판각,4.3,3.0,"['tourist_attraction', 'point_of_interest', 'establishment']",대전 동구 가양동 3,36.3471424,127.4575187,4
송자대전판,2.5,2.0,"['tourist_attraction', 'point_of_interest', 'establishment']",대전 동구 가양동 3,36.3471741,127.4575306,4
대전 비래동 고인돌,3.6,54.0,"['tourist_attraction', 'point_of_interest', 'establishment']",대전 대덕구 비래동 419,36.3674943,127.4483184,4
첫사랑 벽화,,,"['tourist_attraction', 'point_of_interest', 'establishment']",대전 동구 대동 1-905,36.33189520000001,127.4509764,1
대동벽화마을,5.0,5.0,"['tourist_attraction', 'point_of_interest', 'establishment']",대전 동구 대동 5-60,36.3309072,127.4495727,1
하늘공원가는길,4.0,1.0,"['tourist_attraction', 'point_of_interest', 'establishment']",대전 동구 대동 1-719,36.3313886,127.4509565,1
1990년 신혼부부 나무심기 식재지,,,"['tourist_attraction', 'point_of_interest', 'establishment']",대전 대덕구 비래동 산 8-5,36.3648944,127.4574971,4
이화정,,,"['tourist_attraction', 'point_of_interest', 'establishment']",대전 동구 대동 1-1159,36.3305969,127.4506747,1
대동 AR벽화,,,"['tourist_attraction', 'point_of_interest', 'establishment']",대전 동구 대동 28-22,36.32960570000001,127.4503063,1
고봉산성,3.0,1.0,"['tourist_attraction', 'point_of_interest', 'establishment']",대전 동구 비룡동 산 18-1,36.3555238,127.4650116,4
능성,4.4,31.0,"['tourist_attraction', 'point_of_interest', 'establishment']",대전 동구 비룡동 산 19-20,36.34511670000001,127.4657677,4
옥류각,3.9,15.0,"['tourist_attraction', 'point_of_interest', 'establishment']",대전 대덕구 비래동 467,36.3727697,127.4510092,4
대전 비래사 목조비로자나불좌상,4.1,35.0,"['tourist_attraction', 'point_of_interest', 'establishment']",대전 대덕구 비래동 468,36.3729659,127.4510125,4
1987년 신혼부부 나무심기 식재지,5.0,2.0,"['tourist_attraction', 'point_of_interest', 'establishment']",대전 동구 추동 산 32-1,36.3705541,127.4628523,4
대청호반자연생태공원,4.3,597.0,"['park', 'tourist_attraction', 'point_of_interest', 'establishment']",대전 동구 추동 328,36.3727738,127.4745761,4
대청호 2층 데크 뷰,4.7,3.0,"['tourist_attraction', 'point_of_interest', 'establishment']",대전 동구 추동 산 36-8,36.37323250000001,127.4756174,4
황새바위 전망대,4.8,6.0,"['tourist_attraction', 'point_of_interest', 'establishment']",대전 동구 주산동 287,36.3650686,127.4841137,4
슬픈연가 드라마 촬영지,4.6,334.0,"['tourist_attraction', 'point_of_interest', 'establishment']",대전 동구 추동 680,36.3792117,127.4859993,4
찬샘마을,4.2,154.0,"['tourist_attraction', 'point_of_interest', 'establishment']",대전 동구 직동 676,36.4179055,127.4797307,4
효평마루 오대호아트팩토리,4.7,9.0,"['tourist_attraction', 'point_of_interest', 'establishment']",대전 동구 효평동 265,36.405207,127.4742874,4
관동묘려,4.1,10.0,"['tourist_attraction', 'point_of_interest', 'establishment']",대전 동구 마산동 96,36.38590960000001,127.4968688,4
근장골,,,"['tourist_attraction', 'point_of_interest', 'establishment']",대전 동구 직동 17-2,36.4077624,127.4991425,4
이현동 생태습지(억새밭),4.0,3.0,"['tourist_attraction', 'point_of_interest', 'establishment']",대전 대덕구 이현동 1,36.4162464,127.4694568,4
대청호두메마을,4.2,39.0,"['tourist_attraction', 'point_of_interest', 'establishment']",대전 대덕구 이현동 187,36.4146279,127.4666209,4
고래바위 333,,,"['tourist_attraction', 'point_of_interest', 'establishment']",대전 동구 신촌동 333-17,36.3767806,127.5035785,4
대전 보문산 마애여래좌상,4.4,23.0,"['tourist_attraction', 'point_of_interest', 'establishment']",대전 중구 석교동 산 17-10,36.3042239,127.4311273,1
보광사,4.0,5.0,"['tourist_attraction', 'point_of_interest', 'establishment']",대전 중구 석교동 245-2,36.3074736,127.4371267,1
봉소루,4.0,10.0,"['tourist_attraction', 'point_of_interest', 'establishment']",대전 중구 석교동 61-2,36.3090568,127.4409596,1
대전별서,,,"['tourist_attraction', 'point_of_interest', 'establishment']",대전 동구 이사동 219-2,36.2842559,127.445187,1
조각 산과 강,,,"['tourist_attraction', 'point_of_interest', 'establishment']",대전 동구 용운동 460,36.32546349999999,127.4496312,1
조각 일출,,,"['tourist_attraction', 'point_of_interest', 'establishment']",대전 동구 용운동 460,36.3254549,127.4498512,1
조각 한옥,,,"['tourist_attraction', 'point_of_interest', 'establishment']",대전 동구 용운동 505-246,36.32568970000001,127.4501586,1
문충사,4.0,27.0,"['tourist_attraction', 'point_of_interest', 'establishment']",대전 동구 용운동 356-1,36.32469409999999,127.460124,1
갈현성,4.0,3.0,"['tourist_attraction', 'point_of_interest', 'establishment']",대전 동구 용운동 9,36.33394319999999,127.4671231,1
옻샘약수터,,,"['tourist_attraction', 'point_of_interest', 'establishment']",대전 동구 판암동 38,36.3107392,127.471991,1
식장산 단풍나무 보호수,,,"['tourist_attraction', 'point_of_interest', 'establishment']",대전 동구 세천동 571-1,36.3296662,127.4845183,1
The Old House Of Song Joongki’s Parents,5.0,1.0,"['tourist_attraction', 'point_of_interest', 'establishment']",대전 동구 세천동 240-7,36.3322638,127.491934,4
개심사,4.2,52.0,"['tourist_attraction', 'place_of_worship', 'point_of_interest', 'establishment']",대전 동구 판암동 54-1,36.3024193,127.4721235,1
오동선 벚꽃길,5.0,1.0,"['tourist_attraction', 'point_of_interest', 'establishment']",대전 동구 신상동 282-4,36.3544425,127.4985927,4
벚꽃명소,,,"['tourist_attraction', 'point_of_interest', 'establishment']",대전 동구 신촌동 산 6-25,36.3771227,127.5131795,4
휴드림랜드,,,"['amusement_park', 'point_of_interest', 'establishment']",대전 서구 월평동 443,36.3573314,127.3600869,6
대전방탈출 큐브이스케이프,3.7,71.0,"['amusement_park', 'point_of_interest', 'establishment']",대전 서구 둔산동 1101-1,36.35066139999999,127.3749248,6
아틀란티스 키즈테마파크 대전점,3.3,13.0,"['amusement_park', 'point_of_interest', 'establishment']",대전 유성구 도룡동 4-20,36.3760958,127.3919681,6
바우배기어린이공원,,,"['amusement_park', 'point_of_interest', 'establishment']",대전 대덕구 법동 280-1,36.3722631,127.424678,4
알크래프트드라이빙라운지,4.7,19.0,"['amusement_park', 'point_of_interest', 'establishment']",대전 중구 오류동 154-4,36.32212879999999,127.410482,3
아쿠아랜드수족관,3.7,9.0,"['aquarium', 'point_of_interest', 'establishment']",대전 유성구 지족동 912-11,36.3745468,127.3204694,5
피쉬갤러리,4.5,60.0,"['aquarium', 'point_of_interest', 'establishment']",대전 서구 월평동 1301,36.35337929999999,127.3561677,6
A수족관,,,"['aquarium', 'point_of_interest', 'establishment']",대전 서구 월평동 1296,36.3532428,127.3562344,6
기린아쿠아,5.0,3.0,"['aquarium', 'point_of_interest', 'establishment']",대전 유성구 어은동 99,36.3636083,127.3565267,6
"대전 엑스포 아쿠아리움 | 대관, 연회, 프로포즈, 캠핑",,,"['aquarium', 'point_of_interest', 'establishment']",대전 유성구 도룡동 3-1,36.3749429,127.3807526,6
대전 엑스포 아쿠아리움,4.4,314.0,"['aquarium', 'point_of_interest', 'establishment']",대전 유성구 도룡동 3-1,36.3749407,127.3807957,6
KU AQUA,5.0,1.0,"['aquarium', 'point_of_interest', 'establishment']",대전 유성구 도룡동 4-9,36.3763332,127.3947817,2
대전작은동물원수족관,4.3,63.0,"['aquarium', 'point_of_interest', 'establishment']",대전 유성구 원내동 363-6,36.301327,127.322431,0
갈마꽃수족관,,,"['aquarium', 'point_of_interest', 'establishment']",대전 서구 갈마동 390-22,36.34316310000001,127.3668858,6
온라인수족관,,,"['aquarium', 'point_of_interest', 'establishment']",대전 서구 복수동 284,36.3099366,127.3750618,3
아쿠아,,,"['aquarium', 'point_of_interest', 'establishment']",대전 대덕구 송촌동 445-4,36.3669962,127.4382045,4
아쿠아천수족관,5.0,3.0,"['aquarium', 'point_of_interest', 'establishment']",대전 대덕구 법동 206-7,36.3653133,127.4322404,4
베스트피쉬 대전점,,,"['aquarium', 'point_of_interest', 'establishment']",대전 대덕구 중리동 118-14,36.36217069999999,127.4345241,4
세이브아쿠아,,,"['aquarium', 'point_of_interest', 'establishment']",대전 동구 용전동 46-17,36.3560323,127.4339132,4
대산수족관,3.0,4.0,"['aquarium', 'point_of_interest', 'establishment']",대전 중구 산성동 280-3,36.30491299999999,127.3879446,3
파란벽걸이수족관,,,"['aquarium', 'point_of_interest', 'establishment']",대전 중구 용두동 100-36,36.3293329,127.4068246,3
한샘수족관,,,"['aquarium', 'point_of_interest', 'establishment']",대전 중구 용두동 99-4,36.3301294,127.4080482,3
Medakagallery,,,"['aquarium', 'point_of_interest', 'establishment']",대전 중구 문화동 1-118,36.31886819999999,127.4137017,3
메다카갤러리,,,"['aquarium', 'point_of_interest', 'establishment']",대전 동구 중동 51-53,36.3315284,127.4281397,1
대전수족관,2.8,6.0,"['aquarium', 'point_of_interest', 'establishment']",대전 동구 정동 2-14,36.3340536,127.4316265,1
대전 아쿠아리움,,,"['aquarium', 'point_of_interest', 'establishment']",대전 중구 대사동 198-14,36.3099582,127.4210672,1
광장수족관,,,"['aquarium', 'point_of_interest', 'establishment']",대전 동구 성남동 205-6,36.34621620000001,127.4324916,1
옥쿠아리움,,,"['aquarium', 'point_of_interest', 'establishment']",대전 동구 가양동 42-12,36.3505427,127.4506022,4
꽃수족관,,,"['aquarium', 'point_of_interest', 'establishment']",대전 대덕구 비래동 131-18,36.3582444,127.451054,4
겨리우리,,,"['aquarium', 'point_of_interest', 'establishment']",대전 대덕구 비래동 135-13,36.3576877,127.4526727,4
박선우갤러리,,,"['art_gallery', 'point_of_interest', 'establishment']",대전 유성구 계산동 721,36.34339979999999,127.3005486,0
갤러리 연,3.0,3.0,"['art_gallery', 'point_of_interest', 'establishment']",대전 유성구 지족동 1030,36.3849543,127.3082261,5
갤러리아트,,,"['art_gallery', 'point_of_interest', 'establishment']",대전 유성구 노은동 488-1,36.3719779,127.3159382,5
와이갤러리,,,"['art_gallery', 'point_of_interest', 'establishment']",대전 유성구 노은동 488-8,36.3719827,127.3167673,5
샘ㅈ물갤러리,,,"['art_gallery', 'point_of_interest', 'establishment']",대전 유성구 지족동 880,36.3765302,127.3210061,5
"아트센터 나,비",,,"['art_gallery', 'point_of_interest', 'establishment']",대전 유성구 장대동 357-2,36.3601967,127.3361803,5
호박꽃갤러리,4.5,2.0,"['art_gallery', 'point_of_interest', 'establishment']",대전 유성구 신성동 162-7,36.388687,127.348524,5
성희갤러리,,,"['art_gallery', 'point_of_interest', 'establishment']",대전 유성구 신봉동 230-14,36.4134871,127.3380275,5
덕산수석정원석갤러리,,,"['art_gallery', 'point_of_interest', 'establishment']",대전 유성구 신성동 152-1,36.38648619999999,127.3515217,5
갤러리지에이,4.0,1.0,"['art_gallery', 'point_of_interest', 'establishment']",대전 유성구 용계동 166-11,36.32970219999999,127.33083,0
더갤러리,,,"['art_gallery', 'point_of_interest', 'establishment']",대전 유성구 장대동 283-4,36.358363,127.3370495,5
갤러리꿀아트커뮤니티,,,"['art_gallery', 'point_of_interest', 'establishment']",대전 유성구 원신흥동 500-3,36.3397623,127.3424472,0
이지갤러리,,,"['art_gallery', 'point_of_interest', 'establishment']",대전 유성구 어은동 103-1,36.3617264,127.3540048,5
까르뜨블랑슈,,,"['art_gallery', 'point_of_interest', 'establishment']",대전 서구 둔산동 1036,36.3523005,127.37852,6
소반갤러리,,,"['art_gallery', 'point_of_interest', 'establishment']",대전 서구 월평동 302,36.3609298,127.3717617,6
신세계갤러리,,,"['art_gallery', 'point_of_interest', 'establishment']",대전 유성구 도룡동 3-1,36.3747762,127.3807703,6
갤러리끌레모,,,"['art_gallery', 'point_of_interest', 'establishment']",대전 서구 만년동 282,36.3654908,127.3800123,6
돈갤러리,,,"['art_gallery', 'point_of_interest', 'establishment']",대전 서구 월평동 225,36.3627317,127.3785522,6
갤러리메르헨,,,"['art_gallery', 'point_of_interest', 'establishment']",대전 유성구 도룡동 395-21,36.385042,127.3802952,2
하람갤러리,,,"['art_gallery', 'point_of_interest', 'establishment']",대전 서구 갈마동 265-33,36.3536384,127.3694649,6
대전엑스포시민광장 아트센터,3.8,5.0,"['art_gallery', 'point_of_interest', 'establishment']",대전 서구 만년동 396,36.3679309,127.3877917,6
갤러리스파ANDT,,,"['art_gallery', 'point_of_interest', 'establishment']",대전 서구 둔산동 1009,36.3530683,127.3778034,6
레드1964갤러리,,,"['art_gallery', 'point_of_interest', 'establishment']",대전 서구 둔산동 1033,36.3528799,127.3788344,6
여진불교미술관,4.0,26.0,"['art_gallery', 'point_of_interest', 'establishment']",대전 유성구 탑립동 442-1,36.4104606,127.4061824,2
채스갤러리,,,"['art_gallery', 'point_of_interest', 'establishment']",대전 유성구 전민동 284-3,36.3999414,127.3963408,2
GEEOGRAM 지오그램,,,"['art_gallery', 'point_of_interest', 'establishment']",대전 유성구 전민동 460-1,36.39929240000001,127.4001153,2
서경갤러리,,,"['art_gallery', 'point_of_interest', 'establishment']",대전 유성구 전민동 303-11,36.3992135,127.400702,2
홍석갤러리,,,"['art_gallery', 'point_of_interest', 'establishment']",대전 유성구 전민동 305-7,36.3991328,127.4022266,2
아트레나,,,"['art_gallery', 'point_of_interest', 'establishment']",대전 유성구 전민동 325-9,36.3988039,127.4045714,2
스케치갤러리,,,"['art_gallery', 'point_of_interest', 'establishment']",대전 유성구 전민동 466-3,36.3999585,127.4056852,2
밍밍갤러리,,,"['art_gallery', 'point_of_interest', 'establishment']",대전 유성구 전민동 466-3,36.3999585,127.4056852,2
코코갤러리,,,"['art_gallery', 'point_of_interest', 'establishment']",대전 유성구 전민동 466-3,36.3999585,127.4056852,2
홍승일도자미술관,,,"['art_gallery', 'point_of_interest', 'establishment']",대전 유성구 탑립동 591-2,36.4108651,127.3979165,2
갤러리숨,,,"['art_gallery', 'point_of_interest', 'establishment']",대전 유성구 문지동 668,36.3919188,127.4089024,2
팍스갤러리,,,"['art_gallery', 'point_of_interest', 'establishment']",대전 유성구 도룡동 4-9,36.3763075,127.3947838,2
단디,,,"['art_gallery', 'point_of_interest', 'establishment']",대전 유성구 관평동 1262,36.4228511,127.3923118,2
양성국갤러리,,,"['art_gallery', 'point_of_interest', 'establishment']",대전 유성구 원내동 801,36.3018577,127.3264149,0
Y갤러리,,,"['art_gallery', 'point_of_interest', 'establishment']",대전 서구 관저동 1411,36.2993085,127.3410501,0
진갤러리,,,"['art_gallery', 'point_of_interest', 'establishment']",대전 서구 관저동 1419,36.2997103,127.3426466,0
갤러리 다온,,,"['art_gallery', 'point_of_interest', 'establishment']",대전 서구 도안동 2047,36.3067222,127.3534964,3
나무갤러리,,,"['art_gallery', 'point_of_interest', 'establishment']",대전 서구 가수원동 192-6,36.3053158,127.3551897,3
JJ 아뜨리에,5.0,2.0,"['art_gallery', 'point_of_interest', 'establishment']",대전 서구 괴곡동 293-1,36.2876749,127.3612527,3
미소갤러리,,,"['art_gallery', 'point_of_interest', 'establishment']",대전 서구 내동 169-15,36.3337459,127.3726706,6
레이갤러리,,,"['art_gallery', 'point_of_interest', 'establishment']",대전 서구 내동 160-11,36.33480779999999,127.3718646,6
youn gallery,,,"['art_gallery', 'point_of_interest', 'establishment']",대전 서구 괴정동 114-14,36.3375971,127.3772813,6
갤러리옷집,,,"['art_gallery', 'point_of_interest', 'establishment']",대전 서구 괴정동 90-7,36.33402509999999,127.3832113,3
김혜영갤러리화실,,,"['art_gallery', 'point_of_interest', 'establishment']",대전 서구 탄방동 511-110,36.3417315,127.3781483,6
바람의언덕갤러리,,,"['art_gallery', 'point_of_interest', 'establishment']",대전 서구 도마동 182-60,36.3109851,127.3811925,3
갤러리황,,,"['art_gallery', 'point_of_interest', 'establishment']",대전 중구 태평동 422-7,36.3182504,127.3893205,3
갤러리,,,"['art_gallery', 'point_of_interest', 'establishment']",대전 서구 둔산동 1427,36.3492706,127.3883073,6
땡이의미술여행서구지사,,,"['art_gallery', 'point_of_interest', 'establishment']",대전 서구 둔산동 1457,36.3515604,127.3887852,6
둔산 갤러리,,,"['art_gallery', 'point_of_interest', 'establishment']",대전 서구 탄방동 716,36.3482223,127.388271,6
갤러리보니데,,,"['art_gallery', 'point_of_interest', 'establishment']",대전 서구 탄방동 747,36.3463925,127.3876848,6
아트앤하트대전지사,,,"['art_gallery', 'point_of_interest', 'establishment']",대전 서구 탄방동 792,36.3464075,127.3899151,6
갤러리단추,5.0,1.0,"['art_gallery', 'point_of_interest', 'establishment']",대전 서구 둔산동 2096,36.3493329,127.3970047,6
둔산화랑,,,"['art_gallery', 'point_of_interest', 'establishment']",대전 서구 탄방동 1270,36.348746,127.39899,6
채움갤러리,,,"['art_gallery', 'point_of_interest', 'establishment']",대전 대덕구 중리동 437-3,36.3590611,127.4213171,4
휴갤러리,,,"['art_gallery', 'point_of_interest', 'establishment']",대전 대덕구 법동 202-1,36.3671603,127.4304117,4
수갤러리,,,"['art_gallery', 'point_of_interest', 'establishment']",대전 대덕구 중리동 189-6,36.3602614,127.4315806,4
이숲갤러리,,,"['art_gallery', 'point_of_interest', 'establishment']",대전 대덕구 중리동 493-7,36.364376,127.436427,4
청담갤러리,,,"['art_gallery', 'point_of_interest', 'establishment']",대전 대덕구 송촌동 445-4,36.3669962,127.4382045,4
에넥스 본갤러리,,,"['art_gallery', 'point_of_interest', 'establishment']",대전 중구 산성동 144-9,36.3101113,127.3885479,3
영아트갤러리,,,"['art_gallery', 'point_of_interest', 'establishment']",대전 중구 산성동 120-12,36.30414319999999,127.3840591,3
미래(MIRRE)갤러리,,,"['art_gallery', 'point_of_interest', 'establishment']",대전 서구 복수동 732,36.2980732,127.375349,3
개미갤러리,,,"['art_gallery', 'point_of_interest', 'establishment']",대전 중구 유천동 334-1,36.3137736,127.3919066,3
양성국 gallery,,,"['art_gallery', 'point_of_interest', 'establishment']",대전 중구 문화동 584-10,36.3060261,127.4017088,3
소호아트갤러리,,,"['art_gallery', 'point_of_interest', 'establishment']",대전 중구 유천동 327-29,36.3173567,127.3922051,3
서연갤러리,,,"['art_gallery', 'point_of_interest', 'establishment']",대전 중구 유천동 211-19,36.3173812,127.3965181,3
Gallery DK & World,,,"['art_gallery', 'point_of_interest', 'establishment']",대전 중구 문화동 1-13,36.3209524,127.4099541,3
K갤러리,,,"['art_gallery', 'point_of_interest', 'establishment']",대전 중구 용두동 34-33,36.3274722,127.4074524,3
콤파스인터내셔널윤갤러리,,,"['art_gallery', 'point_of_interest', 'establishment']",대전 중구 용두동 26-33,36.3252071,127.4121295,3
갤러리모아,,,"['art_gallery', 'point_of_interest', 'establishment']",대전 중구 오류동 175-1,36.32378619999999,127.4074658,3
문아트,,,"['art_gallery', 'point_of_interest', 'establishment']",대전 중구 오류동 152-1,36.32263030000001,127.4115575,3
아담스갤러리,,,"['art_gallery', 'point_of_interest', 'establishment']",대전 중구 오류동 152-1,36.32263030000001,127.4115575,3
양지갤러리,,,"['art_gallery', 'point_of_interest', 'establishment']",대전 중구 선화동 430-9,36.3253756,127.416508,1
우송화랑,,,"['art_gallery', 'point_of_interest', 'establishment']",대전 중구 선화동 366-12,36.3292187,127.4178823,1
영갤러리,,,"['art_gallery', 'point_of_interest', 'establishment']",대전 중구 선화동 366-12,36.3292187,127.4178823,1
예술액자,,,"['art_gallery', 'point_of_interest', 'establishment']",대전 중구 대사동 248-300,36.32193890000001,127.4170466,1
갤러리그라피,,,"['art_gallery', 'point_of_interest', 'establishment']",대전 중구 선화동 192-14,36.3321011,127.4181004,1
그리미갤러리,,,"['art_gallery', 'point_of_interest', 'establishment']",대전 중구 선화동 192-14,36.3321011,127.4181004,1
국립 대전현대미술관 (2025년),,,"['art_gallery', 'point_of_interest', 'establishment']",대전 중구 선화동 287-1,36.3274199,127.4202662,1
정원미술관,5.0,1.0,"['art_gallery', 'point_of_interest', 'establishment']",대전 중구 선화동 354,36.32939559999999,127.4199918,1
아임갤러리,,,"['art_gallery', 'point_of_interest', 'establishment']",대전 중구 대흥동 466-12,36.3253446,127.4231525,1
아트세이,,,"['art_gallery', 'point_of_interest', 'establishment']",대전 중구 선화동 79-14,36.3325165,127.4216204,1
대전현대갤러리,3.4,21.0,"['art_gallery', 'point_of_interest', 'establishment']",대전 중구 대흥동 465-2,36.3253045,127.4234608,1
태수갤러리,,,"['art_gallery', 'point_of_interest', 'establishment']",대전 중구 중촌동 117-14,36.33876900000001,127.4135894,1
아트삼육오,,,"['art_gallery', 'point_of_interest', 'establishment']",대전 중구 중촌동 99-8,36.3393354,127.4121994,1
아트스페이스B갤러리,,,"['art_gallery', 'point_of_interest', 'establishment']",대전 중구 중촌동 98-9,36.3396572,127.4127662,1
갤러리 아트앤아트,5.0,1.0,"['art_gallery', 'point_of_interest', 'establishment']",대전 중구 대흥동 423-5,36.32380879999999,127.4257711,1
지아트,,,"['art_gallery', 'point_of_interest', 'establishment']",대전 중구 은행동 137-28,36.3295034,127.4260546,1
우연겔러리,3.3,3.0,"['art_gallery', 'point_of_interest', 'establishment']",대전 중구 대흥동 187-1,36.3262489,127.4269882,1
어트렉션 (Attraction),,,"['art_gallery', 'point_of_interest', 'establishment']",대전 중구 은행동 9-6,36.3297682,127.4283143,1
"Small Window, Large Landscape",,,"['art_gallery', 'point_of_interest', 'establishment']",대전 동구 중동 51-32,36.33178729999999,127.4277699,1
Small Window Gallery,,,"['art_gallery', 'point_of_interest', 'establishment']",대전 동구 중동 51-32,36.33178729999999,127.4277699,1
토방갤러리,,,"['art_gallery', 'point_of_interest', 'establishment']",대전 중구 대흥동 91-4,36.32604930000001,127.4297253,1
아트&하트,,,"['art_gallery', 'point_of_interest', 'establishment']",대전 동구 삼성동 322-2,36.3404653,127.4223281,1
언우빈갤러리,,,"['art_gallery', 'point_of_interest', 'establishment']",대전 동구 중동 93-11,36.3297989,127.4313052,1
아림갤러리,,,"['art_gallery', 'point_of_interest', 'establishment']",대전 동구 삼성동 479,36.3407016,127.4242157,1
아트갤러리,,,"['art_gallery', 'point_of_interest', 'establishment']",대전 동구 원동 85-1,36.3274621,127.4325439,1
보문산갤러리,,,"['art_gallery', 'point_of_interest', 'establishment']",대전 중구 대사동 197-15,36.3090955,127.4193415,1
한국음악저작권협회 충청지부,,,"['art_gallery', 'point_of_interest', 'establishment']",대전 동구 용전동 21-3,36.3537574,127.4398427,4
아름가운아트갤러리,,,"['art_gallery', 'point_of_interest', 'establishment']",대전 대덕구 오정동 223-108,36.3490805,127.4247968,1
관사24호 : 핑크집,,,"['art_gallery', 'point_of_interest', 'establishment']",대전 동구 삼성동 100-14,36.3369071,127.4355143,1
관사17호 : 마당집,,,"['art_gallery', 'point_of_interest', 'establishment']",대전 동구 소제동 299-67,36.3369298,127.4364989,1
관사16호,4.5,4.0,"['art_gallery', 'point_of_interest', 'establishment']",대전 동구 소제동 299-70,36.3367684,127.4367257,1
관사51호 : 두충나무집,4.0,1.0,"['art_gallery', 'point_of_interest', 'establishment']",대전 동구 삼성동 100-24,36.33629760000001,127.4352547,1
이산갤러리,,,"['art_gallery', 'point_of_interest', 'establishment']",대전 동구 가양동 48-23,36.3521951,127.452973,4
아트하트,,,"['art_gallery', 'point_of_interest', 'establishment']",대전 대덕구 송촌동 497-16,36.3636953,127.4440616,4
우피치갤러리이츠갤러리,,,"['art_gallery', 'point_of_interest', 'establishment']",대전 동구 소제동 304-38,36.3343565,127.4399092,1
갤러리석,,,"['art_gallery', 'point_of_interest', 'establishment']",대전 동구 소제동 304-42,36.3339587,127.4398241,1
아트와나무,,,"['art_gallery', 'point_of_interest', 'establishment']",대전 중구 부사동 298-11,36.31230869999999,127.4317663,1
나목향갤러리,1.0,1.0,"['art_gallery', 'point_of_interest', 'establishment']",대전 동구 가오동 388-14,36.30560550000001,127.4515114,1
파리바게트 학하오투그란데,3.9,67.0,"['bakery', 'store', 'point_of_interest', 'food', 'establishment']",대전 유성구 계산동 803-3,36.3422695,127.304094,0
신일룡의 호두파이,4.5,2.0,"['bakery', 'store', 'point_of_interest', 'food', 'establishment']",대전 유성구 계산동 산 40,36.34586049999999,127.2905563,0
소담제빵소,3.7,3.0,"['bakery', 'store', 'point_of_interest', 'food', 'establishment']",대전 유성구 계산동 801-3,36.3422468,127.3036304,0
파리바게뜨 노은현대,3.8,11.0,"['bakery', 'store', 'point_of_interest', 'food', 'establishment']",대전 유성구 지족동 905-5,36.37249139999999,127.3189973,5
파리바게뜨 대전노은역,4.2,5.0,"['bakery', 'store', 'point_of_interest', 'food', 'establishment']",대전 유성구 지족동 901-4,36.3747967,127.318414,5
올리브가든 본점,4.3,81.0,"['bakery', 'store', 'point_of_interest', 'food', 'establishment']",대전 유성구 죽동 620-12,36.3806792,127.326224,5
파리바게뜨 노은스타,3.7,48.0,"['bakery', 'store', 'point_of_interest', 'food', 'establishment']",대전 유성구 노은동 562-2,36.3653287,127.3173749,5
뚜레쥬르 대전노은호반,4.4,14.0,"['bakery', 'store', 'point_of_interest', 'food', 'establishment']",대전 유성구 지족동 985-2,36.38698960000001,127.3161083,5
파리바게뜨 노은송림,3.7,37.0,"['bakery', 'store', 'point_of_interest', 'food', 'establishment']",대전 유성구 하기동 516,36.3878418,127.3200717,5
파리바게뜨 노은반석점,3.4,14.0,"['bakery', 'store', 'point_of_interest', 'food', 'establishment']",대전 유성구 반석동 639-1,36.3913877,127.3122679,5
연선흠베이커리카페,4.3,132.0,"['bakery', 'store', 'point_of_interest', 'food', 'establishment']",대전 유성구 지족동 1048-5,36.3785383,127.305351,5
파프 더 샌드위치,,,"['bakery', 'store', 'point_of_interest', 'food', 'establishment']",대전 유성구 지족동 885-8,36.3744543,127.3163724,5
파리바게트 노은휴먼시아,4.5,23.0,"['bakery', 'store', 'point_of_interest', 'food', 'establishment']",대전 유성구 지족동 1046-9,36.3779619,127.3038927,5
하이쿠킹,,,"['bakery', 'store', 'point_of_interest', 'food', 'establishment']",대전 유성구 지족동 1047-5,36.37799529999999,127.3036041,5
리저트베이크샵,,,"['bakery', 'store', 'point_of_interest', 'food', 'establishment']",대전 유성구 노은동 491-2,36.3718136,127.3174249,5
봄베이커리,,,"['bakery', 'store', 'point_of_interest', 'food', 'establishment']",대전 유성구 지족동 905-1,36.3736342,127.3184301,5
아도레 (Adorer),4.6,10.0,"['bakery', 'store', 'point_of_interest', 'food', 'establishment']",대전 유성구 지족동 905-3,36.3728113,127.3185066,5
라프레즈,4.5,2.0,"['bakery', 'store', 'point_of_interest', 'food', 'establishment']",대전 유성구 지족동 901-3,36.3751925,127.3184241,5
파파브레드,,,"['bakery', 'store', 'point_of_interest', 'food', 'establishment']",대전 유성구 지족동 901-3,36.3751736,127.3184479,5
뚜레쥬르 대전노은계룡,,,"['bakery', 'store', 'point_of_interest', 'food', 'establishment']",대전 유성구 지족동 905-5,36.37249139999999,127.3189973,5
뚜레쥬르 대전노은월드코아,3.2,9.0,"['bakery', 'store', 'point_of_interest', 'food', 'establishment']",대전 유성구 지족동 901-1,36.3757376,127.3188994,5
프롬식빵,,,"['bakery', 'food', 'store', 'point_of_interest', 'establishment']",대전 유성구 지족동 910-4,36.3750718,127.3195454,5
쥬드봉봉,,,"['bakery', 'food', 'store', 'point_of_interest', 'establishment']",대전 유성구 지족동 912-16,36.37530959999999,127.3204873,5
라슈케이크,,,"['bakery', 'food', 'store', 'point_of_interest', 'establishment']",대전 유성구 지족동 849-2,36.38084440000001,127.3165895,5
오베이커리,,,"['bakery', 'food', 'store', 'point_of_interest', 'establishment']",대전 유성구 지족동 914,36.3752536,127.3209269,5
브레드신,,,"['bakery', 'food', 'store', 'point_of_interest', 'establishment']",대전 유성구 지족동 918-4,36.37416079999999,127.3211604,5
LETTHEMEATCAKE,3.0,1.0,"['bakery', 'food', 'store', 'point_of_interest', 'establishment']",대전 유성구 지족동 918-6,36.3741668,127.3214312,5
시나피 건강빵 연구소,4.9,9.0,"['bakery', 'food', 'store', 'point_of_interest', 'establishment']",대전 유성구 지족동 916-7,36.3748285,127.3215156,5
시나피통밀빵대전본점,,,"['bakery', 'food', 'store', 'point_of_interest', 'establishment']",대전 유성구 지족동 916-7,36.37480519999999,127.3215188,5
꾸드뱅,4.3,513.0,"['bakery', 'food', 'store', 'point_of_interest', 'establishment']",대전 유성구 지족동 1026-2,36.38674709999999,127.3087045,5
대전사라다 지족점,5.0,1.0,"['bakery', 'food', 'store', 'point_of_interest', 'establishment']",대전 유성구 지족동 1023-5,36.38723969999999,127.3081249,5
팔레츠,,,"['bakery', 'food', 'store', 'point_of_interest', 'establishment']",대전 유성구 지족동 983-3,36.38732359999999,127.3170979,5
베이크샵 수하,5.0,2.0,"['bakery', 'food', 'store', 'point_of_interest', 'establishment']",대전 유성구 지족동 1095-6,36.3894752,127.3074278,5
열시삼십오분,5.0,1.0,"['bakery', 'food', 'store', 'point_of_interest', 'establishment']",대전 유성구 반석동 660-8,36.38896239999999,127.3157438,5
라프레즈베이커리카페,4.4,80.0,"['bakery', 'food', 'store', 'point_of_interest', 'establishment']",대전 유성구 지족동 1091-3,36.3892961,127.3040814,5
크림하트,,,"['bakery', 'food', 'store', 'point_of_interest', 'establishment']",대전 유성구 반석동 653-14,36.389823,127.3143217,5
샤르르,,,"['bakery', 'food', 'store', 'point_of_interest', 'establishment']",대전 유성구 반석동 649-1,36.3905042,127.3138286,5
다올케이크,,,"['bakery', 'food', 'store', 'point_of_interest', 'establishment']",대전 유성구 하기동 528-12,36.3869913,127.3228412,5
마이쿠키리스트,5.0,2.0,"['bakery', 'food', 'store', 'point_of_interest', 'establishment']",대전 유성구 하기동 528-12,36.3869888,127.3228843,5
소로소로,4.5,30.0,"['bakery', 'store', 'point_of_interest', 'food', 'establishment']",대전 유성구 반석동 650-9,36.3905607,127.3146456,5
프레너리하우스,,,"['bakery', 'store', 'point_of_interest', 'food', 'establishment']",대전 유성구 반석동 639-5,36.3913939,127.313259,5
대단한탕후루,,,"['bakery', 'store', 'point_of_interest', 'food', 'establishment']",대전 유성구 반석동 640-1,36.3914538,127.3135142,5
더스페셜플라워케이크,,,"['bakery', 'store', 'point_of_interest', 'food', 'establishment']",대전 유성구 반석동 612,36.39596,127.3095568,5
스윗오븐,,,"['bakery', 'store', 'point_of_interest', 'food', 'establishment']",대전 유성구 죽동 698-2,36.3702797,127.3370303,5
시나몬 베이커리,,,"['bakery', 'store', 'point_of_interest', 'food', 'establishment']",대전 유성구 죽동 758,36.3697749,127.3369448,5
이상화 Bakery & Cafe,4.3,3.0,"['bakery', 'store', 'point_of_interest', 'food', 'establishment']",대전 유성구 죽동 733-8,36.37450399999999,127.3376771,5
콜마르브레드,4.5,18.0,"['bakery', 'store', 'point_of_interest', 'food', 'establishment']",대전 유성구 죽동 707-1,36.3694314,127.3379363,5
오디너리베이크샵,,,"['bakery', 'store', 'point_of_interest', 'food', 'establishment']",대전 유성구 죽동 688,36.3679341,127.3375299,5
파셀 샌드위치 바,5.0,3.0,"['bakery', 'store', 'point_of_interest', 'food', 'establishment']",대전 유성구 죽동 706-5,36.36892090000001,127.338892,5
어거스트,5.0,1.0,"['bakery', 'store', 'point_of_interest', 'food', 'establishment']",대전 유성구 하기동 89,36.3876025,127.3353924,5
에덴베이커리,,,"['bakery', 'store', 'point_of_interest', 'food', 'establishment']",대전 유성구 장대동 280-3,36.3594933,127.3360238,5
케익하우스,,,"['bakery', 'store', 'point_of_interest', 'food', 'establishment']",대전 유성구 장대동 353-5,36.361382,127.3376903,5
옜날생과자,,,"['bakery', 'store', 'point_of_interest', 'food', 'establishment']",대전 유성구 장대동 282-3,36.3584109,127.3356206,5
도도한케이크,,,"['bakery', 'store', 'point_of_interest', 'food', 'establishment']",대전 유성구 장대동 315-7,36.3648666,127.3398648,5
파띠세르팡리,5.0,1.0,"['bakery', 'store', 'point_of_interest', 'food', 'establishment']",대전 유성구 장대동 354-9,36.3611598,127.3381903,5
우리밀빵조아,,,"['bakery', 'store', 'point_of_interest', 'food', 'establishment']",대전 유성구 장대동 11-29,36.3571497,127.3352258,5
신라명과 대전자운리점,,,"['bakery', 'food', 'store', 'point_of_interest', 'establishment']",대전 유성구 신봉동 230-14,36.4135146,127.33805,5
파리바게뜨,4.1,38.0,"['bakery', 'food', 'store', 'point_of_interest', 'establishment']",대전 유성구 신성동 216-6,36.3866014,127.3501884,5
크라운베이커리,,,"['bakery', 'food', 'store', 'point_of_interest', 'establishment']",대전 유성구 신봉동 230-14,36.4135146,127.33805,5
파리바게뜨 노은송림,3.7,37.0,"['bakery', 'food', 'store', 'point_of_interest', 'establishment']",대전 유성구 하기동 516,36.3878418,127.3200717,5
올리브가든 본점,4.3,81.0,"['bakery', 'food', 'store', 'point_of_interest', 'establishment']",대전 유성구 죽동 620-12,36.3806792,127.326224,5
뚜레쥬르 대전노은호반,4.4,14.0,"['bakery', 'food', 'store', 'point_of_interest', 'establishment']",대전 유성구 지족동 985-2,36.38698960000001,127.3161083,5
파리바게뜨 노은반석점,3.4,14.0,"['bakery', 'food', 'store', 'point_of_interest', 'establishment']",대전 유성구 반석동 639-1,36.3913877,127.3122679,5
파리바게뜨 대전노은역,4.2,5.0,"['bakery', 'food', 'store', 'point_of_interest', 'establishment']",대전 유성구 지족동 901-4,36.3747967,127.318414,5
어거스트,5.0,1.0,"['bakery', 'food', 'store', 'point_of_interest', 'establishment']",대전 유성구 하기동 89,36.3876025,127.3353924,5
초록도,,,"['bakery', 'food', 'store', 'point_of_interest', 'establishment']",대전 유성구 신성동 138-12,36.3903578,127.3488422,5
토우 베이크하우스,4.5,34.0,"['cafe', 'bakery', 'food', 'store', 'point_of_interest', 'establishment']",대전 유성구 신성동 126-22,36.3902002,127.3507359,5
리피피,5.0,1.0,"['bakery', 'food', 'store', 'point_of_interest', 'establishment']",대전 유성구 신성동 210-89,36.3882152,127.3519872,5
던킨도너츠,,,"['bakery', 'food', 'store', 'point_of_interest', 'establishment']",대전 유성구 신봉동 5-2,36.4131112,127.3408341,5
던킨도너츠 대전자운대점,3.9,40.0,"['bakery', 'food', 'store', 'point_of_interest', 'establishment']",대전 유성구 신봉동 5-2,36.4131126,127.3410541,5
열시삼십오분,5.0,1.0,"['bakery', 'food', 'point_of_interest', 'store', 'establishment']",대전 유성구 반석동 660-8,36.38896239999999,127.3157438,5
소로소로,4.5,30.0,"['bakery', 'food', 'point_of_interest', 'store', 'establishment']",대전 유성구 반석동 650-9,36.3905607,127.3146456,5
크림하트,,,"['bakery', 'food', 'point_of_interest', 'store', 'establishment']",대전 유성구 반석동 653-14,36.389823,127.3143217,5
대단한탕후루,,,"['bakery', 'food', 'point_of_interest', 'store', 'establishment']",대전 유성구 반석동 640-1,36.3914538,127.3135142,5
샤르르,,,"['bakery', 'food', 'point_of_interest', 'store', 'establishment']",대전 유성구 반석동 649-1,36.3905042,127.3138286,5
프레너리하우스,,,"['bakery', 'food', 'point_of_interest', 'store', 'establishment']",대전 유성구 반석동 639-5,36.3913939,127.313259,5
더스페셜플라워케이크,,,"['bakery', 'food', 'point_of_interest', 'store', 'establishment']",대전 유성구 반석동 612,36.39596,127.3095568,5
라슈케이크,,,"['bakery', 'food', 'point_of_interest', 'store', 'establishment']",대전 유성구 지족동 849-2,36.38084440000001,127.3165895,5
이상화 Bakery & Cafe,4.3,3.0,"['bakery', 'food', 'point_of_interest', 'store', 'establishment']",대전 유성구 죽동 733-8,36.37450399999999,127.3376771,5
베이크샵 수하,5.0,2.0,"['bakery', 'food', 'point_of_interest', 'store', 'establishment']",대전 유성구 지족동 1095-6,36.3894752,127.3074278,5
꾸드뱅,4.3,513.0,"['bakery', 'food', 'point_of_interest', 'store', 'establishment']",대전 유성구 지족동 1026-2,36.38674709999999,127.3087045,5
대전사라다 지족점,5.0,1.0,"['bakery', 'food', 'point_of_interest', 'store', 'establishment']",대전 유성구 지족동 1023-5,36.38723969999999,127.3081249,5
오베이커리,,,"['bakery', 'food', 'point_of_interest', 'store', 'establishment']",대전 유성구 지족동 914,36.3752536,127.3209269,5
쥬드봉봉,,,"['bakery', 'food', 'point_of_interest', 'store', 'establishment']",대전 유성구 지족동 912-16,36.37530959999999,127.3204873,5
시나피 건강빵 연구소,4.9,9.0,"['bakery', 'food', 'point_of_interest', 'store', 'establishment']",대전 유성구 지족동 916-7,36.3748285,127.3215156,5
시나피통밀빵대전본점,,,"['bakery', 'food', 'point_of_interest', 'store', 'establishment']",대전 유성구 지족동 916-7,36.37480519999999,127.3215188,5
뚜레쥬르 대전노은월드코아,3.2,9.0,"['bakery', 'food', 'point_of_interest', 'store', 'establishment']",대전 유성구 지족동 901-1,36.3757376,127.3188994,5
프롬식빵,,,"['bakery', 'food', 'point_of_interest', 'store', 'establishment']",대전 유성구 지족동 910-4,36.3750718,127.3195454,5
LETTHEMEATCAKE,3.0,1.0,"['bakery', 'food', 'point_of_interest', 'store', 'establishment']",대전 유성구 지족동 918-6,36.3741668,127.3214312,5
브레드신,,,"['bakery', 'food', 'point_of_interest', 'store', 'establishment']",대전 유성구 지족동 918-4,36.37416079999999,127.3211604,5
라프레즈,4.5,2.0,"['bakery', 'food', 'point_of_interest', 'store', 'establishment']",대전 유성구 지족동 901-3,36.3751925,127.3184241,5
파파브레드,,,"['bakery', 'food', 'point_of_interest', 'store', 'establishment']",대전 유성구 지족동 901-3,36.3751736,127.3184479,5
라프레즈베이커리카페,4.4,80.0,"['bakery', 'food', 'point_of_interest', 'store', 'establishment']",대전 유성구 지족동 1091-3,36.3892961,127.3040814,5
봄베이커리,,,"['bakery', 'food', 'point_of_interest', 'store', 'establishment']",대전 유성구 지족동 905-1,36.3736342,127.3184301,5
파프 더 샌드위치,,,"['bakery', 'food', 'point_of_interest', 'store', 'establishment']",대전 유성구 지족동 885-8,36.3744543,127.3163724,5
스윗오븐,,,"['bakery', 'food', 'point_of_interest', 'store', 'establishment']",대전 유성구 죽동 698-2,36.3702797,127.3370303,5
아미띠에,4.5,2.0,"['bakery', 'food', 'point_of_interest', 'store', 'establishment']",대전 유성구 교촌동 624-1,36.3045031,127.317392,0
파리바게트 학하오투그란데,3.9,67.0,"['bakery', 'point_of_interest', 'store', 'food', 'establishment']",대전 유성구 계산동 803-3,36.3422695,127.304094,0
소담제빵소,3.7,3.0,"['bakery', 'point_of_interest', 'store', 'food', 'establishment']",대전 유성구 계산동 801-3,36.3422468,127.3036304,0
파리바게뜨 대전복용아이파크,,,"['bakery', 'point_of_interest', 'store', 'food', 'establishment']",대전 유성구 상대동 571,36.3362501,127.3301444,0
던킨 대전도안점,3.0,1.0,"['bakery', 'point_of_interest', 'store', 'food', 'establishment']",대전 유성구 상대동 571,36.3363963,127.3320651,0
몰랑몰랑 목원대점,5.0,2.0,"['bakery', 'point_of_interest', 'store', 'food', 'establishment']",대전 유성구 용계동 664-8,36.330274,127.3376649,0
아미띠에,4.5,2.0,"['bakery', 'point_of_interest', 'store', 'food', 'establishment']",대전 유성구 교촌동 624-1,36.3045031,127.317392,0
냥그쿠키,,,"['bakery', 'point_of_interest', 'store', 'food', 'establishment']",대전 유성구 원신흥동 574-6,36.3338822,127.3377321,0
메리제제,,,"['bakery', 'point_of_interest', 'store', 'food', 'establishment']",대전 유성구 원신흥동 566-7,36.3356374,127.3370408,0
바닐라베이크,,,"['bakery', 'point_of_interest', 'store', 'food', 'establishment']",대전 유성구 원신흥동 575-12,36.3338028,127.337946,0
보름달과자점,,,"['bakery', 'point_of_interest', 'store', 'food', 'establishment']",대전 유성구 원신흥동 575-12,36.3338028,127.337946,0
신일룡의 호두파이,4.5,2.0,"['bakery', 'point_of_interest', 'store', 'food', 'establishment']",대전 유성구 계산동 산 40,36.34586049999999,127.2905563,0
DALKE,,,"['bakery', 'point_of_interest', 'store', 'food', 'establishment']",대전 유성구 원신흥동 566-3,36.3358844,127.3372065,0
복남이네빵집,,,"['bakery', 'point_of_interest', 'store', 'food', 'establishment']",대전 서구 도안동 866,36.33106720000001,127.3397845,0
디저트 비결,,,"['bakery', 'point_of_interest', 'store', 'food', 'establishment']",대전 유성구 원신흥동 546-10,36.3356247,127.3386696,0
레몽베이크,,,"['bakery', 'point_of_interest', 'store', 'food', 'establishment']",대전 유성구 원신흥동 541-11,36.3363773,127.3383731,0
슈가나인케이크,,,"['bakery', 'point_of_interest', 'store', 'food', 'establishment']",대전 서구 도안동 868,36.33107830000001,127.3402201,0
빵을위한사람들,5.0,1.0,"['bakery', 'point_of_interest', 'store', 'food', 'establishment']",대전 유성구 원신흥동 558-4,36.3325586,127.340584,0
뚜레쥬르,,,"['bakery', 'point_of_interest', 'store', 'food', 'establishment']",대전 서구 도안동 963,36.3299966,127.3412817,0
일랑일랑,,,"['bakery', 'point_of_interest', 'store', 'food', 'establishment']",대전 유성구 원신흥동 544-7,36.3361945,127.339708,0
달퐁제과,,,"['bakery', 'point_of_interest', 'store', 'food', 'establishment']",대전 유성구 원신흥동 544-7,36.3361945,127.339708,0
오드비베이크샵,5.0,1.0,"['bakery', 'point_of_interest', 'store', 'food', 'establishment']",대전 유성구 원신흥동 544-12,36.3366652,127.3395428,0
빨강벽돌집,4.4,28.0,"['bakery', 'point_of_interest', 'store', 'food', 'establishment']",대전 유성구 원내동 77-12,36.3014589,127.3176958,0
홈플러스익스프레스 봉명점,4.3,70.0,"['supermarket', 'grocery_or_supermarket', 'bakery', 'store', 'food', 'point_of_interest', 'establishment']",대전 유성구 봉명동 567-1,36.3549877,127.3362113,5
뚜레쥬르,4.2,31.0,"['bakery', 'store', 'food', 'point_of_interest', 'establishment']",대전 유성구 상대동 473-1,36.3460228,127.3391628,5
파리바게뜨 대전도안봉명,3.7,29.0,"['bakery', 'store', 'food', 'point_of_interest', 'establishment']",대전 유성구 봉명동 1035-2,36.3459096,127.341068,5
파리바게뜨 도안상대,3.9,51.0,"['bakery', 'store', 'food', 'point_of_interest', 'establishment']",대전 유성구 상대동 456-2,36.3466751,127.3353747,5
파리바게뜨 노은스타,3.7,48.0,"['bakery', 'store', 'food', 'point_of_interest', 'establishment']",대전 유성구 노은동 562-2,36.3653287,127.3173749,5
파리바게뜨 계룡사옥점,1.0,1.0,"['bakery', 'store', 'food', 'point_of_interest', 'establishment']",대전 서구 월평동 861,36.35595989999999,127.364185,6
파리바게뜨 노은현대,3.8,11.0,"['bakery', 'store', 'food', 'point_of_interest', 'establishment']",대전 유성구 지족동 905-5,36.37249139999999,127.3189973,5
파리바게트 학하오투그란데,3.9,67.0,"['bakery', 'store', 'food', 'point_of_interest', 'establishment']",대전 유성구 계산동 803-3,36.3422695,127.304094,0
온리링케이크,,,"['bakery', 'store', 'food', 'point_of_interest', 'establishment']",대전 유성구 구암동 616-2,36.3509877,127.3337396,5
알마니 천안호두과자&COFFEE,,,"['bakery', 'store', 'food', 'point_of_interest', 'establishment']",대전 유성구 구암동 614-15,36.3488235,127.3340899,5
마리스텔라케이크,,,"['bakery', 'store', 'food', 'point_of_interest', 'establishment']",대전 유성구 구암동 611-1,36.3504264,127.3366722,5
더좋은아침베이커리,,,"['bakery', 'store', 'food', 'point_of_interest', 'establishment']",대전 유성구 구암동 623-26,36.350351,127.3314053,5
벌크베이크,,,"['bakery', 'store', 'food', 'point_of_interest', 'establishment']",대전 유성구 구암동 620-15,36.3487858,127.3319279,5
3Q 브래드,1.0,1.0,"['bakery', 'store', 'food', 'point_of_interest', 'establishment']",대전 유성구 봉명동 465-12,36.35304370000001,127.3360495,5
오성베이커리,,,"['bakery', 'store', 'food', 'point_of_interest', 'establishment']",대전 유성구 구암동 603-11,36.352284,127.3312005,5
샤르레,,,"['bakery', 'store', 'food', 'point_of_interest', 'establishment']",대전 유성구 구암동 594-3,36.3542828,127.3352212,5
바른제빵소,,,"['bakery', 'food', 'point_of_interest', 'store', 'establishment']",대전 유성구 봉명동 566-11,36.3544776,127.3354101,5
베이커리하모니,4.8,29.0,"['bakery', 'food', 'point_of_interest', 'store', 'establishment']",대전 유성구 상대동 469-3,36.3476343,127.3393165,5
도넛,,,"['bakery', 'food', 'point_of_interest', 'store', 'establishment']",대전 유성구 봉명동 555-2,36.351605,127.340223,5
스마일꽈배기,5.0,1.0,"['bakery', 'food', 'point_of_interest', 'store', 'establishment']",대전 유성구 봉명동 565-2,36.3553159,127.3349361,5
글로리아제과점,4.4,5.0,"['bakery', 'food', 'point_of_interest', 'store', 'establishment']",대전 유성구 봉명동 561-10,36.3552108,127.3365189,5
경성꽈배기,,,"['bakery', 'food', 'point_of_interest', 'store', 'establishment']",대전 유성구 봉명동 562-14,36.3557316,127.3346607,5
빵장수단팥빵,4.8,5.0,"['bakery', 'food', 'point_of_interest', 'store', 'establishment']",대전 유성구 봉명동 447-6,36.3538716,127.3398886,5
꼼므케이크,,,"['bakery', 'food', 'point_of_interest', 'store', 'establishment']",대전 유성구 봉명동 1029-1,36.3480206,127.3408504,5
써니스브레드,5.0,1.0,"['bakery', 'food', 'point_of_interest', 'store', 'establishment']",대전 유성구 봉명동 444-5,36.3555482,127.3381519,5
크리베리,4.5,11.0,"['bakery', 'food', 'point_of_interest', 'store', 'establishment']",대전 유성구 봉명동 553-2,36.3536039,127.3406953,5
우리밀빵조아,,,"['bakery', 'food', 'point_of_interest', 'store', 'establishment']",대전 유성구 장대동 11-29,36.3571497,127.3352258,5
BREAD COCO,4.7,10.0,"['bakery', 'food', 'point_of_interest', 'store', 'establishment']",대전 유성구 상대동 476-8,36.34462450000001,127.3389061,5
더 베이커,5.0,4.0,"['bakery', 'food', 'point_of_interest', 'store', 'establishment']",대전 유성구 상대동 478-6,36.3434215,127.3387077,5
옜날생과자,,,"['bakery', 'food', 'point_of_interest', 'store', 'establishment']",대전 유성구 장대동 282-3,36.3584109,127.3356206,5
뚜레쥬르 대전도안봉명점,,,"['bakery', 'food', 'point_of_interest', 'store', 'establishment']",대전 유성구 봉명동 1016-7,36.3521434,127.3445987,5
피크베이크샵,4.5,2.0,"['bakery', 'food', 'point_of_interest', 'store', 'establishment']",대전 유성구 봉명동 1053-8,36.3434199,127.3406008,5
그리니쉬,,,"['bakery', 'food', 'point_of_interest', 'store', 'establishment']",대전 유성구 봉명동 549-11,36.35391660000001,127.3444585,5
에덴베이커리,,,"['bakery', 'point_of_interest', 'store', 'food', 'establishment']",대전 유성구 장대동 280-3,36.3594933,127.3360238,5
대한케이크디자인,,,"['bakery', 'point_of_interest', 'store', 'food', 'establishment']",대전 유성구 봉명동 536-8,36.3561097,127.3433839,5
든든,5.0,1.0,"['bakery', 'point_of_interest', 'store', 'food', 'establishment']",대전 유성구 봉명동 1042,36.34555099999999,127.344542,5
씨엘드프랑스,4.3,60.0,"['bakery', 'point_of_interest', 'store', 'food', 'establishment']",대전 유성구 원신흥동 491-3,36.3425486,127.3429387,5
파띠세르팡리,5.0,1.0,"['bakery', 'point_of_interest', 'store', 'food', 'establishment']",대전 유성구 장대동 354-9,36.3611598,127.3381903,5
케익하우스,,,"['bakery', 'point_of_interest', 'store', 'food', 'establishment']",대전 유성구 장대동 353-5,36.361382,127.3376903,5
하루팡,4.6,9.0,"['bakery', 'point_of_interest', 'store', 'food', 'establishment']",대전 유성구 봉명동 611-1,36.3594089,127.3444815,5
Harupann,5.0,1.0,"['bakery', 'point_of_interest', 'store', 'food', 'establishment']",대전 유성구 봉명동 611-1,36.3593625,127.3446164,5
Le-Pain 99-1,4.3,341.0,"['bakery', 'point_of_interest', 'store', 'food', 'establishment']",대전 유성구 봉명동 650,36.35790860000001,127.3472463,5
엘핀케이크,,,"['bakery', 'point_of_interest', 'store', 'food', 'establishment']",대전 유성구 원신흥동 504-1,36.3392467,127.3427457,0
샘케이크,,,"['bakery', 'point_of_interest', 'store', 'food', 'establishment']",대전 유성구 궁동 482-2,36.361333,127.3448164,5
비하우스,4.0,3.0,"['bakery', 'point_of_interest', 'store', 'food', 'establishment']",대전 유성구 원신흥동 509-1,36.33854840000001,127.3434647,0
로티보이,,,"['bakery', 'point_of_interest', 'store', 'food', 'establishment']",대전 유성구 궁동 482-1,36.3615265,127.3449195,5
파리바게뜨만년KBS점,4.0,40.0,"['bakery', 'store', 'food', 'point_of_interest', 'establishment']",대전 서구 만년동 298,36.36885410000001,127.3799916,6
파리바게뜨,4.1,38.0,"['bakery', 'store', 'food', 'point_of_interest', 'establishment']",대전 유성구 신성동 216-6,36.3866014,127.3501884,5
뚜레쥬르 대전월평다모아,4.1,30.0,"['bakery', 'store', 'food', 'point_of_interest', 'establishment']",대전 서구 월평동 311,36.3626879,127.3676596,6
파리바게뜨 대전만년,3.7,51.0,"['bakery', 'store', 'food', 'point_of_interest', 'establishment']",대전 서구 만년동 1-2,36.3675208,127.3762698,6
파리바게뜨 대전황실,4.0,6.0,"['bakery', 'store', 'food', 'point_of_interest', 'establishment']",대전 서구 월평동 302,36.3600223,127.3719282,6
파리바게뜨 대전월평점,4.1,111.0,"['bakery', 'store', 'food', 'point_of_interest', 'establishment']",대전 서구 월평동 265,36.36198359999999,127.3769725,6
코코호도둔산점,4.7,3.0,"['bakery', 'store', 'food', 'point_of_interest', 'establishment']",대전 서구 둔산동 1008,36.35338369999999,127.3777978,6
던킨도너츠 대전타임월드점,4.2,23.0,"['bakery', 'store', 'food', 'point_of_interest', 'establishment']",대전 서구 둔산동 1014,36.3528648,127.3781546,6
캘리포니아 베이커리,4.3,32.0,"['bakery', 'store', 'food', 'point_of_interest', 'establishment']",대전 유성구 구성동 23,36.3700733,127.3636628,6
Aussitôt Bakers,4.0,1.0,"['bakery', 'store', 'food', 'point_of_interest', 'establishment']",대전 유성구 어은동 111-6,36.363828,127.3578251,6
붕카페(Boong cafe),5.0,2.0,"['bakery', 'cafe', 'store', 'food', 'point_of_interest', 'establishment']",대전 유성구 어은동 112-12,36.3636103,127.3586097,6
콜마르 브레드,4.3,386.0,"['bakery', 'store', 'food', 'point_of_interest', 'establishment']",대전 유성구 어은동 110-9,36.3629612,127.3570244,6
파리바게뜨 대전한빛점,4.1,122.0,"['bakery', 'store', 'food', 'point_of_interest', 'establishment']",대전 유성구 어은동 108-6,36.3629099,127.3565773,6
Better Be Sweet Meat Pies,5.0,1.0,"['bakery', 'store', 'food', 'point_of_interest', 'establishment']",대전 유성구 어은동 101-8,36.3623476,127.3552198,6
밀로베이크샵,5.0,1.0,"['bakery', 'food', 'point_of_interest', 'store', 'establishment']",대전 유성구 궁동 404-6,36.3626646,127.3523563,5
디라팡,5.0,1.0,"['bakery', 'food', 'point_of_interest', 'store', 'establishment']",대전 유성구 궁동 404-6,36.362654,127.3523736,5
브레드프랑,,,"['bakery', 'food', 'point_of_interest', 'store', 'establishment']",대전 유성구 궁동 405-10,36.362271,127.3529666,5
훗카이도케이크,,,"['bakery', 'food', 'point_of_interest', 'store', 'establishment']",대전 유성구 궁동 407-1,36.36267309999999,127.351238,5
독일베이커리,,,"['bakery', 'food', 'point_of_interest', 'store', 'establishment']",대전 유성구 궁동 409,36.3625852,127.3503194,5
파리바게트 대전궁동점,,,"['bakery', 'food', 'point_of_interest', 'store', 'establishment']",대전 유성구 궁동 441,36.36242319999999,127.350103,5
당신을 위한 빵집,5.0,7.0,"['bakery', 'food', 'point_of_interest', 'store', 'establishment']",대전 서구 월평동 218,36.3625915,127.3695686,6
루머팜빈 대전충청지사,,,"['bakery', 'food', 'point_of_interest', 'store', 'establishment']",대전 유성구 궁동 412-2,36.362632,127.3491336,5
앨리스케이크&디저트,,,"['bakery', 'food', 'point_of_interest', 'store', 'establishment']",대전 유성구 궁동 395-8,36.3631469,127.3483104,5
케익하우스올레뜨,,,"['bakery', 'food', 'point_of_interest', 'store', 'establishment']",대전 유성구 궁동 410-3,36.3621043,127.3499946,5
드숑케이크,,,"['bakery', 'food', 'point_of_interest', 'store', 'establishment']",대전 유성구 궁동 427-5,36.361288,127.35142,5
프랜즈도넛,4.0,4.0,"['bakery', 'food', 'point_of_interest', 'store', 'establishment']",대전 유성구 궁동 427-6,36.36117889999999,127.3514108,5
슈슈브레드,5.0,1.0,"['bakery', 'food', 'point_of_interest', 'store', 'establishment']",대전 유성구 궁동 422-6,36.36113169999999,127.350024,5
쏘어링,,,"['bakery', 'food', 'point_of_interest', 'store', 'establishment']",대전 유성구 궁동 420-1,36.3616519,127.3489508,5
미블리,,,"['bakery', 'food', 'point_of_interest', 'store', 'establishment']",대전 서구 만년동 266,36.3660551,127.3764018,6
리피피,5.0,1.0,"['bakery', 'food', 'point_of_interest', 'store', 'establishment']",대전 유성구 신성동 210-89,36.3882152,127.3519872,5
뚜레쥬르 대전서구만년,4.4,12.0,"['bakery', 'food', 'point_of_interest', 'store', 'establishment']",대전 서구 만년동 281-1,36.3662463,127.3769749,6
데이앤데이 서대전점,,,"['bakery', 'food', 'point_of_interest', 'store', 'establishment']",대전 서구 월평동 510,36.3576884,127.3629935,6
크림잇,,,"['bakery', 'food', 'point_of_interest', 'store', 'establishment']",대전 서구 월평동 543,36.3575514,127.3643771,6
러번트,,,"['bakery', 'store', 'food', 'point_of_interest', 'establishment']",대전 서구 월평동 559,36.3576343,127.3648377,6
케익하우스위켄드,,,"['bakery', 'store', 'food', 'point_of_interest', 'establishment']",대전 서구 월평동 302,36.3601605,127.3718815,6
로티보이,,,"['bakery', 'store', 'food', 'point_of_interest', 'establishment']",대전 유성구 궁동 482-1,36.3615265,127.3449195,5
피아노베이커리 월평점,,,"['bakery', 'store', 'food', 'point_of_interest', 'establishment']",대전 서구 월평동 301,36.3595495,127.3712705,6
샘케이크,,,"['bakery', 'store', 'food', 'point_of_interest', 'establishment']",대전 유성구 궁동 482-2,36.361333,127.3448164,5
후후베이크,,,"['bakery', 'store', 'food', 'point_of_interest', 'establishment']",대전 서구 월평동 546,36.3570792,127.3643973,6
버터폴앤크멀러스,5.0,1.0,"['bakery', 'store', 'food', 'point_of_interest', 'establishment']",대전 유성구 도룡동 3-1,36.3749493,127.3806945,6
르봉뺑 신세계백화점아트앤사이언스점,,,"['bakery', 'store', 'food', 'point_of_interest', 'establishment']",대전 유성구 도룡동 3-1,36.375162,127.3806857,6
르쎄떼,5.0,1.0,"['bakery', 'store', 'food', 'point_of_interest', 'establishment']",대전 유성구 도룡동 3-1,36.3748994,127.3807313,6
버터풀앤크리멀러 대전신세계점,3.6,5.0,"['bakery', 'store', 'food', 'point_of_interest', 'establishment']",대전 유성구 도룡동 3-1,36.3749215,127.3807993,6
파셀 샌드위치 바,5.0,3.0,"['bakery', 'store', 'food', 'point_of_interest', 'establishment']",대전 유성구 죽동 706-5,36.36892090000001,127.338892,5
겐츠베이커리 대전점,4.0,2.0,"['bakery', 'store', 'food', 'point_of_interest', 'establishment']",대전 유성구 도룡동 3-1,36.3751072,127.3809603,6
이상화 Bakery & Cafe,4.3,3.0,"['bakery', 'store', 'food', 'point_of_interest', 'establishment']",대전 유성구 죽동 733-8,36.37450399999999,127.3376771,5
모나트,,,"['bakery', 'store', 'food', 'point_of_interest', 'establishment']",대전 서구 월평동 301,36.35886929999999,127.3713615,6
콜마르브레드,4.5,18.0,"['bakery', 'store', 'food', 'point_of_interest', 'establishment']",대전 유성구 죽동 707-1,36.3694314,127.3379363,5
토우 베이크하우스,4.5,34.0,"['cafe', 'bakery', 'store', 'food', 'point_of_interest', 'establishment']",대전 유성구 신성동 126-22,36.3902002,127.3507359,5
도도한케이크,,,"['bakery', 'store', 'food', 'point_of_interest', 'establishment']",대전 유성구 장대동 315-7,36.3648666,127.3398648,5
월평동 붕어빵,,,"['bakery', 'store', 'food', 'point_of_interest', 'establishment']",대전 서구 월평동 1554,36.3556785,127.3609839,6
SSOLCAKESTUDIO,,,"['bakery', 'store', 'food', 'point_of_interest', 'establishment']",대전 서구 월평동 904,36.3557799,127.362709,6
던킨도너츠,4.1,98.0,"['bakery', 'point_of_interest', 'store', 'food', 'establishment']",대전 유성구 전민동 325-2,36.3993786,127.4040996,2
크라운베이커리(전민점),4.3,3.0,"['bakery', 'point_of_interest', 'store', 'food', 'establishment']",대전 유성구 전민동 464-1,36.3998786,127.4068771,2
파리바게뜨 대전전민점,4.4,19.0,"['bakery', 'point_of_interest', 'store', 'food', 'establishment']",대전 유성구 전민동 307-5,36.3993939,127.4031908,2
뚜레쥬르엑스포점,,,"['bakery', 'point_of_interest', 'store', 'food', 'establishment']",대전 유성구 전민동 466-3,36.3999341,127.4057661,2
파리바게뜨 테크노운암,3.8,69.0,"['bakery', 'point_of_interest', 'store', 'food', 'establishment']",대전 유성구 관평동 672,36.4201117,127.3918471,2
파리바게뜨 대덕밸리점,3.9,49.0,"['bakery', 'point_of_interest', 'store', 'food', 'establishment']",대전 유성구 관평동 911,36.4220573,127.3880779,2
코코호도,,,"['bakery', 'point_of_interest', 'store', 'food', 'establishment']",대전 유성구 관평동 914,36.42255160000001,127.3880186,2
못난이꽈배기 북대전점,5.0,2.0,"['bakery', 'point_of_interest', 'store', 'food', 'establishment']",대전 유성구 화암동 65-4,36.40170990000001,127.3750134,2
신라명과,,,"['bakery', 'point_of_interest', 'store', 'food', 'establishment']",대전 유성구 전민동 460-1,36.3990039,127.3987951,2
통밀이야기,,,"['bakery', 'point_of_interest', 'store', 'food', 'establishment']",대전 유성구 전민동 460-1,36.3990039,127.3987951,2
꺄도,,,"['bakery', 'point_of_interest', 'store', 'food', 'establishment']",대전 유성구 도룡동 385-11,36.38610079999999,127.379579,2
베이커리아른,4.3,12.0,"['bakery', 'point_of_interest', 'store', 'food', 'establishment']",대전 유성구 도룡동 395-13,36.38533579999999,127.3789108,2
수제식빵이야기오클라,4.5,15.0,"['bakery', 'point_of_interest', 'store', 'food', 'establishment']",대전 유성구 도룡동 395-8,36.3848929,127.3797123,2
쭈케이크,5.0,1.0,"['bakery', 'point_of_interest', 'store', 'food', 'establishment']",대전 유성구 전민동 458-5,36.3966449,127.4019346,2
슬로우브레드,4.5,248.0,"['bakery', 'point_of_interest', 'store', 'food', 'establishment']",대전 유성구 전민동 304-6,36.39939339999999,127.4019221,2
요니케이크,,,"['bakery', 'point_of_interest', 'store', 'food', 'establishment']",대전 유성구 전민동 448-13,36.3965064,127.403434,2
쿠키벨리 (CookieBelly),,,"['bakery', 'point_of_interest', 'store', 'food', 'establishment']",대전 유성구 전민동 370-6,36.3973135,127.4038382,2
버터버니 쿠키앤커피,5.0,1.0,"['bakery', 'point_of_interest', 'store', 'food', 'establishment']",대전 유성구 전민동 385-2,36.39761710000001,127.4045715,2
르네상스,,,"['bakery', 'point_of_interest', 'store', 'food', 'establishment']",대전 유성구 전민동 325-17,36.3979066,127.4045718,2
독일베이커리,,,"['bakery', 'point_of_interest', 'store', 'food', 'establishment']",대전 유성구 전민동 466-3,36.3999585,127.4056852,2
일랑일랑,5.0,1.0,"['bakery', 'food', 'point_of_interest', 'store', 'establishment']",대전 유성구 전민동 466-3,36.3999585,127.4056852,2
쉬즈베이글 문지점,4.2,5.0,"['bakery', 'food', 'point_of_interest', 'store', 'establishment']",대전 유성구 문지동 636-7,36.3948587,127.4067977,2
오르엔쿠잉,4.7,3.0,"['bakery', 'food', 'point_of_interest', 'store', 'establishment']",대전 유성구 문지동 650-5,36.39404069999999,127.4067967,2
삼천제빵,,,"['bakery', 'food', 'point_of_interest', 'store', 'establishment']",대전 유성구 도룡동 3-1,36.37811329999999,127.3843067,6
콜마르브레드,,,"['bakery', 'food', 'point_of_interest', 'store', 'establishment']",대전 유성구 도룡동 3-1,36.37811329999999,127.3843067,6
홀리스피릿,,,"['bakery', 'food', 'point_of_interest', 'store', 'establishment']",대전 유성구 전민동 464-1,36.3999648,127.40791,2
파리바게뜨 대전용산호반점,,,"['bakery', 'food', 'point_of_interest', 'store', 'establishment']",대전 유성구 용산동 750,36.4147587,127.3934859,2
르구떼브레드,5.0,10.0,"['bakery', 'food', 'point_of_interest', 'store', 'establishment']",대전 유성구 문지동 643-2,36.3961281,127.4088299,2
노티드 대전신세계,5.0,1.0,"['cafe', 'bakery', 'food', 'point_of_interest', 'store', 'establishment']",대전 유성구 도룡동 3-1,36.3773616,127.3843146,6
뺑이모,,,"['bakery', 'food', 'point_of_interest', 'store', 'establishment']",대전 유성구 도룡동 4-6,36.37801619999999,127.3921002,2
몽글슈가_슈가케이크,,,"['bakery', 'food', 'point_of_interest', 'store', 'establishment']",대전 유성구 도룡동 4-6,36.3776902,127.3923234,2
케익찌는아이,,,"['bakery', 'food', 'point_of_interest', 'store', 'establishment']",대전 유성구 용산동 666,36.4176521,127.3932488,2
튀소정거장,,,"['bakery', 'food', 'point_of_interest', 'store', 'establishment']",대전 유성구 도룡동 4-30,36.3762072,127.3926662,6
르봉뺑 신세계백화점아트앤사이언스점,,,"['bakery', 'food', 'point_of_interest', 'store', 'establishment']",대전 유성구 도룡동 3-1,36.375162,127.3806857,6
겐츠베이커리 대전점,4.0,2.0,"['bakery', 'food', 'point_of_interest', 'store', 'establishment']",대전 유성구 도룡동 3-1,36.3751072,127.3809603,6
버터폴앤크멀러스,5.0,1.0,"['bakery', 'food', 'point_of_interest', 'store', 'establishment']",대전 유성구 도룡동 3-1,36.3749493,127.3806945,6
버터풀앤크리멀러 대전신세계점,3.6,5.0,"['bakery', 'food', 'point_of_interest', 'store', 'establishment']",대전 유성구 도룡동 3-1,36.3749215,127.3807993,6
르쎄떼,5.0,1.0,"['bakery', 'food', 'point_of_interest', 'store', 'establishment']",대전 유성구 도룡동 3-1,36.3748994,127.3807313,6
성심당 DCC점,4.4,3388.0,"['bakery', 'food', 'point_of_interest', 'store', 'establishment']",대전 유성구 도룡동 4-19,36.3753156,127.3923997,6
올레뜨과자점,3.0,4.0,"['bakery', 'food', 'point_of_interest', 'store', 'establishment']",대전 유성구 관평동 909,36.4224262,127.3883608,2
I am Donut,,,"['bakery', 'food', 'point_of_interest', 'store', 'establishment']",대전 유성구 관평동 907,36.4228349,127.3886107,2
아이엠도넛대전관평점,,,"['bakery', 'food', 'point_of_interest', 'store', 'establishment']",대전 유성구 관평동 907,36.4228349,127.3886107,2
엄블랑젤,4.0,3.0,"['bakery', 'food', 'point_of_interest', 'store', 'establishment']",대전 유성구 관평동 1028,36.4235754,127.3901327,2
파리바게뜨 관저느리울,4.1,73.0,"['bakery', 'point_of_interest', 'store', 'food', 'establishment']",대전 서구 관저동 1340,36.2992393,127.3401669,0
파리바게뜨 대전원내,4.0,51.0,"['bakery', 'point_of_interest', 'store', 'food', 'establishment']",대전 유성구 원내동 320-7,36.2994725,127.3198881,0
파리바게뜨 관저점,4.0,26.0,"['bakery', 'point_of_interest', 'store', 'food', 'establishment']",대전 서구 관저동 1008,36.30088919999999,127.3354144,0
뚜레쥬르 관저점,4.2,39.0,"['bakery', 'point_of_interest', 'store', 'food', 'establishment']",대전 서구 관저동 1541,36.2965981,127.3382824,0
파리바게뜨 가수원점,3.2,18.0,"['bakery', 'point_of_interest', 'store', 'food', 'establishment']",대전 서구 가수원동 1392,36.30164469999999,127.3497166,0
파리바게뜨 도안수목토,3.8,52.0,"['bakery', 'point_of_interest', 'store', 'food', 'establishment']",대전 서구 도안동 1364,36.32055560000001,127.3441667,0
파리바게뜨 대전정림,3.7,24.0,"['bakery', 'point_of_interest', 'store', 'food', 'establishment']",대전 서구 정림동 585-1,36.3060003,127.3654391,3
케이크쌀롱,,,"['bakery', 'point_of_interest', 'store', 'food', 'establishment']",대전 서구 관저동 1110,36.30116,127.3337817,0
우리동네빵집,4.5,2.0,"['bakery', 'point_of_interest', 'store', 'food', 'establishment']",대전 서구 관저동 1109,36.3007812,127.3343861,0
망힛점빵,,,"['bakery', 'point_of_interest', 'store', 'food', 'establishment']",대전 서구 관저동 999,36.3033164,127.3389364,0
미카롱케이크,,,"['bakery', 'point_of_interest', 'store', 'food', 'establishment']",대전 서구 관저동 1667,36.30738970000001,127.3336708,0
행복을굽는당,4.0,1.0,"['bakery', 'point_of_interest', 'store', 'food', 'establishment']",대전 서구 관저동 1445,36.30068680000001,127.3370663,0
빵앗간,4.8,4.0,"['bakery', 'point_of_interest', 'store', 'food', 'establishment']",대전 서구 관저동 1034,36.2999672,127.3356557,0
파리바게뜨 관저원앙점,4.3,41.0,"['bakery', 'point_of_interest', 'store', 'food', 'establishment']",대전 서구 관저동 1834,36.3070733,127.336835,0
달코미,5.0,2.0,"['bakery', 'point_of_interest', 'store', 'food', 'establishment']",대전 서구 관저동 1020,36.2998503,127.3352013,0
뚜레쥬르관저원앙점,3.3,3.0,"['bakery', 'point_of_interest', 'store', 'food', 'establishment']",대전 서구 관저동 981,36.3082683,127.3365774,0
엘로쿠케이쿠,,,"['bakery', 'point_of_interest', 'store', 'food', 'establishment']",대전 서구 관저동 1548,36.29782399999999,127.336866,0
현미당,,,"['bakery', 'point_of_interest', 'store', 'food', 'establishment']",대전 서구 관저동 1415,36.3000231,127.3410255,0
신라명과 건양대점,4.0,3.0,"['bakery', 'point_of_interest', 'store', 'food', 'establishment']",대전 서구 관저동 1643,36.3066942,127.3424969,0
와플대학 대전관저캠퍼스,4.5,15.0,"['bakery', 'point_of_interest', 'store', 'food', 'establishment']",대전 서구 관저동 1531,36.297053,127.3377504,0
브레댄코 대전관저점,4.0,2.0,"['bakery', 'food', 'store', 'point_of_interest', 'establishment']",대전 서구 관저동 1546,36.2965789,127.3363283,0
Patisserie Yule,,,"['bakery', 'food', 'store', 'point_of_interest', 'establishment']",대전 서구 관저동 1537,36.297156,127.3384147,0
던킨도너츠 관저점,4.4,7.0,"['bakery', 'food', 'store', 'point_of_interest', 'establishment']",대전 서구 관저동 1405,36.2987353,127.3410359,0
스트릿1988 대전관저점,5.0,1.0,"['bakery', 'food', 'store', 'point_of_interest', 'establishment']",대전 서구 관저동 1404,36.29849809999999,127.3410037,0
빵굽는사람들,,,"['bakery', 'food', 'store', 'point_of_interest', 'establishment']",대전 서구 관저동 1502,36.30023639999999,127.3429406,0
자연케이크,,,"['bakery', 'food', 'store', 'point_of_interest', 'establishment']",대전 서구 관저동 1422,36.3010077,127.3439006,0
몽슈,4.4,41.0,"['bakery', 'food', 'store', 'point_of_interest', 'establishment']",대전 서구 관저동 1552-3,36.2954383,127.3369235,0
몰랑몰랑,4.8,8.0,"['bakery', 'food', 'store', 'point_of_interest', 'establishment']",대전 서구 관저동 1551-6,36.2954612,127.3373907,0
다쿠랑아즈,3.5,2.0,"['bakery', 'food', 'store', 'point_of_interest', 'establishment']",대전 서구 관저동 1568-4,36.2947906,127.3368275,0
롯데 브랑제리 서대전점,,,"['bakery', 'food', 'store', 'point_of_interest', 'establishment']",대전 유성구 원내동 33,36.3016945,127.3232488,0
손수베이커리,4.0,1.0,"['bakery', 'food', 'store', 'point_of_interest', 'establishment']",대전 서구 관저동 1394,36.2959639,127.3406668,0
베이크오프,4.2,27.0,"['bakery', 'food', 'store', 'point_of_interest', 'establishment']",대전 서구 관저동 1384,36.29552960000001,127.3399617,0
뚜레쥬르 관저더샵점,,,"['bakery', 'food', 'store', 'point_of_interest', 'establishment']",대전 서구 관저동 1989,36.2966151,127.3266679,0
쉬즈베이글 관저점,,,"['bakery', 'food', 'store', 'point_of_interest', 'establishment']",대전 서구 관저동 1951-1,36.2975078,127.3251877,0
헤브어케이크,,,"['bakery', 'food', 'store', 'point_of_interest', 'establishment']",대전 서구 관저동 1570-12,36.2941161,127.336415,0
파리바게뜨 관저포스코,4.0,9.0,"['bakery', 'food', 'store', 'point_of_interest', 'establishment']",대전 서구 관저동 1952-5,36.2963023,127.3258981,0
구우다 베이커리,4.7,3.0,"['bakery', 'food', 'store', 'point_of_interest', 'establishment']",대전 서구 도안동 1756,36.3048723,127.3489572,0
빵나무,,,"['bakery', 'food', 'store', 'point_of_interest', 'establishment']",대전 유성구 원내동 320-6,36.299634,127.319826,0
정인구 팥빵,4.3,7.0,"['bakery', 'food', 'store', 'point_of_interest', 'establishment']",대전 서구 도안동 1776,36.3053894,127.349696,0
케익하우스윈,,,"['bakery', 'food', 'store', 'point_of_interest', 'establishment']",대전 유성구 원내동 313-3,36.2988892,127.3199437,0
체르니베이커리,,,"['bakery', 'food', 'point_of_interest', 'store', 'establishment']",대전 유성구 원내동 343-12,36.2978595,127.3199928,0
베이크미,,,"['bakery', 'food', 'point_of_interest', 'store', 'establishment']",대전 서구 도안동 1764,36.30594749999999,127.3503606,0
몽글,3.0,2.0,"['bakery', 'food', 'point_of_interest', 'store', 'establishment']",대전 서구 도안동 1783,36.3048372,127.3505662,0
점핑114,,,"['bakery', 'health', 'food', 'point_of_interest', 'store', 'establishment']",대전 유성구 원내동 343-7,36.2979832,127.3194095,0
우리들베이커리,,,"['bakery', 'food', 'point_of_interest', 'store', 'establishment']",대전 유성구 원내동 226-2,36.2995543,127.3183292,0
빨강벽돌집,4.4,28.0,"['bakery', 'food', 'point_of_interest', 'store', 'establishment']",대전 유성구 원내동 77-12,36.3014589,127.3176958,0
드림브레드,,,"['bakery', 'food', 'point_of_interest', 'store', 'establishment']",대전 서구 가수원동 768-1,36.3039451,127.352365,3
기쁘다희케익,,,"['bakery', 'food', 'point_of_interest', 'store', 'establishment']",대전 유성구 원내동 357,36.295013,127.318981,0
케익나무,,,"['bakery', 'food', 'point_of_interest', 'store', 'establishment']",대전 유성구 원내동 357,36.295013,127.318981,0
빵궁전,,,"['bakery', 'food', 'point_of_interest', 'store', 'establishment']",대전 서구 가수원동 772-1,36.30166719999999,127.3531071,3
타타스베이글 대전도안점,4.5,4.0,"['bakery', 'food', 'point_of_interest', 'store', 'establishment']",대전 서구 도안동 1470,36.3131009,127.3510199,0
이케엔솜,,,"['bakery', 'food', 'point_of_interest', 'store', 'establishment']",대전 서구 도안동 1868,36.3095471,127.3533905,3
베이크어웨이,,,"['bakery', 'food', 'point_of_interest', 'store', 'establishment']",대전 서구 도안동 1421,36.3144532,127.3500646,0
우리밀빵조아,,,"['bakery', 'food', 'point_of_interest', 'store', 'establishment']",대전 서구 가수원동 102-4,36.3030683,127.3587467,3
못난이꽈배기가수원점,,,"['bakery', 'food', 'point_of_interest', 'store', 'establishment']",대전 서구 가수원동 102-4,36.303145,127.3587639,3
빠띠시에,,,"['bakery', 'food', 'point_of_interest', 'store', 'establishment']",대전 서구 도안동 1103,36.3235502,127.346062,0
조각집,5.0,1.0,"['bakery', 'food', 'point_of_interest', 'store', 'establishment']",대전 서구 도안동 1044,36.32537300000001,127.3461198,0
PARIS BAGUETTE,4.4,27.0,"['bakery', 'food', 'point_of_interest', 'store', 'establishment']",대전 서구 정림동 592-1,36.3058336,127.36537,3
파리바게뜨 대전도마점,3.8,25.0,"['bakery', 'food', 'point_of_interest', 'store', 'establishment']",대전 서구 도마동 211,36.3220587,127.3699132,3
파리바게뜨 내동롯데점,4.1,20.0,"['bakery', 'food', 'point_of_interest', 'store', 'establishment']",대전 서구 내동 220-11,36.3386533,127.3664626,6
파리바게뜨 도안수목토,3.8,52.0,"['bakery', 'food', 'point_of_interest', 'store', 'establishment']",대전 서구 도안동 1364,36.32055560000001,127.3441667,0
뚜레쥬르 대전내동롯데,2.7,3.0,"['bakery', 'food', 'point_of_interest', 'store', 'establishment']",대전 서구 내동 220,36.3376877,127.3669086,6
파리바게뜨 가장점,3.7,26.0,"['bakery', 'food', 'point_of_interest', 'store', 'establishment']",대전 서구 가장동 61-19,36.33421939999999,127.3849087,3
파리바게뜨 대전정림,3.7,24.0,"['bakery', 'food', 'point_of_interest', 'store', 'establishment']",대전 서구 정림동 585-1,36.3060003,127.3654391,3
뚜레쥬르 대전복수목화점,4.2,23.0,"['bakery', 'food', 'point_of_interest', 'store', 'establishment']",대전 서구 복수동 274-1,36.3085557,127.3739938,3
파리바게뜨 대전갈마동산점,4.2,55.0,"['bakery', 'food', 'point_of_interest', 'store', 'establishment']",대전 서구 갈마동 351-1,36.3474398,127.3711319,6
파리바게뜨 도마시장점,3.7,19.0,"['bakery', 'food', 'point_of_interest', 'store', 'establishment']",대전 서구 도마동 175-14,36.3126886,127.381442,3
파리바게뜨 대전도안봉명,3.7,29.0,"['bakery', 'food', 'point_of_interest', 'store', 'establishment']",대전 유성구 봉명동 1035-2,36.3459096,127.341068,5
파리바게뜨경성갈마점,4.5,4.0,"['bakery', 'food', 'point_of_interest', 'store', 'establishment']",대전 서구 갈마동 1418,36.34694,127.3763259,6
뚜레쥬르,4.2,31.0,"['bakery', 'food', 'point_of_interest', 'store', 'establishment']",대전 유성구 상대동 473-1,36.3460228,127.3391628,5
파리바게뜨,3.7,18.0,"['bakery', 'food', 'point_of_interest', 'store', 'establishment']",대전 서구 괴정동 7-1,36.3425305,127.384314,6
파리바게뜨 가수원점,3.2,18.0,"['bakery', 'food', 'point_of_interest', 'store', 'establishment']",대전 서구 가수원동 1392,36.30164469999999,127.3497166,0
제과인의집,3.0,1.0,"['bakery', 'food', 'point_of_interest', 'store', 'establishment']",대전 서구 변동 253-3,36.3305252,127.3689659,3
팡도르베이커리,,,"['bakery', 'food', 'point_of_interest', 'store', 'establishment']",대전 서구 도마동 24-3,36.3248592,127.3705492,3
따삐오베이커리,,,"['bakery', 'food', 'point_of_interest', 'store', 'establishment']",대전 서구 도마동 14-4,36.32700319999999,127.3710429,3
브레드팜,,,"['bakery', 'point_of_interest', 'store', 'food', 'establishment']",대전 유성구 원신흥동 524-2,36.334947,127.3483791,0
이베이커리,5.0,1.0,"['bakery', 'point_of_interest', 'store', 'food', 'establishment']",대전 서구 도마동 49-12,36.3223318,127.3735768,3
하나로베이커리,,,"['bakery', 'point_of_interest', 'store', 'food', 'establishment']",대전 서구 도마동 35-7,36.3226061,127.3739739,3
모아베이커리,,,"['bakery', 'point_of_interest', 'store', 'food', 'establishment']",대전 서구 도마동 47-39,36.3214152,127.3735491,3
지영케이크,,,"['bakery', 'point_of_interest', 'store', 'food', 'establishment']",대전 서구 도마동 35-28,36.3225062,127.3743533,3
베이커스비스킷,4.7,3.0,"['bakery', 'point_of_interest', 'store', 'food', 'establishment']",대전 서구 도마동 61-15,36.3201105,127.3738001,3
도너츠나라,,,"['bakery', 'point_of_interest', 'store', 'food', 'establishment']",대전 서구 내동 22-4,36.3314896,127.3767108,3
베이크어웨이,,,"['bakery', 'point_of_interest', 'store', 'food', 'establishment']",대전 서구 도안동 1421,36.3144532,127.3500646,0
우리밀빵그레,,,"['bakery', 'point_of_interest', 'store', 'food', 'establishment']",대전 서구 도마동 120-4,36.3166952,127.3725044,3
참좋은날엔,,,"['bakery', 'point_of_interest', 'store', 'food', 'establishment']",대전 서구 도마동 120-21,36.3164368,127.3730599,3
레삐도르과자점,,,"['bakery', 'point_of_interest', 'store', 'food', 'establishment']",대전 서구 도마동 120-20,36.3166102,127.373327,3
타타스베이글 대전도안점,4.5,4.0,"['bakery', 'point_of_interest', 'store', 'food', 'establishment']",대전 서구 도안동 1470,36.3131009,127.3510199,0
스마일찹쌀꽈배기,4.0,1.0,"['bakery', 'restaurant', 'point_of_interest', 'store', 'food', 'establishment']",대전 서구 내동 13-1,36.3305866,127.3787687,3
새로나제과점,4.5,12.0,"['bakery', 'point_of_interest', 'store', 'food', 'establishment']",대전 서구 변동 47-1,36.3248872,127.3804009,3
빛나제과,5.0,1.0,"['bakery', 'point_of_interest', 'store', 'food', 'establishment']",대전 서구 내동 36-8,36.3363879,127.3774248,6
굽는집,,,"['bakery', 'store', 'food', 'point_of_interest', 'establishment']",대전 서구 내동 17-12,36.331232,127.3802193,3
비하우스,4.0,3.0,"['bakery', 'store', 'food', 'point_of_interest', 'establishment']",대전 유성구 원신흥동 509-1,36.33854840000001,127.3434647,0
빵굽는동네,,,"['bakery', 'store', 'food', 'point_of_interest', 'establishment']",대전 서구 변동 13-2,36.3284421,127.3808139,3
가인,,,"['bakery', 'store', 'food', 'point_of_interest', 'establishment']",대전 서구 도마동 80-6,36.3193878,127.3787986,3
팡프렌드,,,"['bakery', 'store', 'food', 'point_of_interest', 'establishment']",대전 서구 내동 17-11,36.3314419,127.3804092,3
케익하우스르미엘,,,"['bakery', 'store', 'food', 'point_of_interest', 'establishment']",대전 서구 내동 17-11,36.3314225,127.3804617,3
몰랑몰랑 목원대점,5.0,2.0,"['bakery', 'store', 'food', 'point_of_interest', 'establishment']",대전 유성구 용계동 664-8,36.330274,127.3376649,0
빵집가는날,3.0,1.0,"['bakery', 'store', 'food', 'point_of_interest', 'establishment']",대전 서구 도마동 127-1,36.31719400000001,127.378076,3
엘핀케이크,,,"['bakery', 'store', 'food', 'point_of_interest', 'establishment']",대전 유성구 원신흥동 504-1,36.3392467,127.3427457,0
이케엔솜,,,"['bakery', 'store', 'food', 'point_of_interest', 'establishment']",대전 서구 도안동 1868,36.3095471,127.3533905,3
태양당제과,,,"['bakery', 'store', 'food', 'point_of_interest', 'establishment']",대전 서구 도마동 96-26,36.31844349999999,127.3794652,3
일랑일랑,,,"['bakery', 'store', 'food', 'point_of_interest', 'establishment']",대전 유성구 원신흥동 544-7,36.3361945,127.339708,0
달퐁제과,,,"['bakery', 'store', 'food', 'point_of_interest', 'establishment']",대전 유성구 원신흥동 544-7,36.3361945,127.339708,0
바닐라베이크,,,"['bakery', 'store', 'food', 'point_of_interest', 'establishment']",대전 유성구 원신흥동 575-12,36.3338028,127.337946,0
보름달과자점,,,"['bakery', 'store', 'food', 'point_of_interest', 'establishment']",대전 유성구 원신흥동 575-12,36.3338028,127.337946,0
오드비베이크샵,5.0,1.0,"['bakery', 'store', 'food', 'point_of_interest', 'establishment']",대전 유성구 원신흥동 544-12,36.3366652,127.3395428,0
냥그쿠키,,,"['bakery', 'store', 'food', 'point_of_interest', 'establishment']",대전 유성구 원신흥동 574-6,36.3338822,127.3377321,0
디저트 비결,,,"['bakery', 'store', 'food', 'point_of_interest', 'establishment']",대전 유성구 원신흥동 546-10,36.3356247,127.3386696,0
케이크이즈,,,"['bakery', 'store', 'food', 'point_of_interest', 'establishment']",대전 서구 갈마동 404-1,36.3436307,127.370956,6
크리스피크림도넛 대전둔산점,4.2,354.0,"['bakery', 'food', 'point_of_interest', 'store', 'establishment']",대전 서구 둔산동 1416,36.3505737,127.3870855,6
던킨도너츠 대전타임월드점,4.2,23.0,"['bakery', 'food', 'point_of_interest', 'store', 'establishment']",대전 서구 둔산동 1014,36.3528648,127.3781546,6
투썸플레이스 대전법원점,3.8,139.0,"['bakery', 'cafe', 'food', 'point_of_interest', 'store', 'establishment']",대전 서구 둔산동 1479,36.35287899999999,127.3894902,6
뚜레쥬르 대전둔산법원,4.1,97.0,"['bakery', 'food', 'point_of_interest', 'store', 'establishment']",대전 서구 둔산동 1391,36.353273,127.389519,6
파리바게뜨 둔산점,3.5,64.0,"['bakery', 'food', 'point_of_interest', 'store', 'establishment']",대전 서구 둔산동 1388,36.35371720000001,127.3921575,6
파리바게뜨만년KBS점,4.0,40.0,"['bakery', 'food', 'point_of_interest', 'store', 'establishment']",대전 서구 만년동 298,36.36885410000001,127.3799916,6
코코호도둔산점,4.7,3.0,"['bakery', 'food', 'point_of_interest', 'store', 'establishment']",대전 서구 둔산동 1008,36.35338369999999,127.3777978,6
코코호도삼천점,,,"['bakery', 'food', 'point_of_interest', 'store', 'establishment']",대전 서구 둔산동 1815,36.3510447,127.3969012,6
파리바게뜨 둔산둥지점,3.7,39.0,"['bakery', 'food', 'point_of_interest', 'store', 'establishment']",대전 서구 둔산동 912,36.35949430000001,127.391824,6
파리바게뜨 대전로데오,3.1,9.0,"['bakery', 'food', 'point_of_interest', 'store', 'establishment']",대전 서구 탄방동 749,36.3463847,127.3880748,6
뚜레쥬르(로데오점),3.8,8.0,"['bakery', 'food', 'point_of_interest', 'store', 'establishment']",대전 서구 탄방동 701,36.3465146,127.3863751,6
파리바게뜨 대전월평점,4.1,111.0,"['bakery', 'food', 'point_of_interest', 'store', 'establishment']",대전 서구 월평동 265,36.36198359999999,127.3769725,6
파리바게뜨 대전탄방,3.8,12.0,"['bakery', 'food', 'point_of_interest', 'store', 'establishment']",대전 서구 탄방동 1026,36.3464404,127.3942131,6
파리바게트롯데점,5.0,2.0,"['bakery', 'food', 'point_of_interest', 'store', 'establishment']",대전 서구 괴정동 423-4,36.3398855,127.390658,6
파리바게뜨 삼천점,4.3,4.0,"['bakery', 'food', 'point_of_interest', 'store', 'establishment']",대전 서구 둔산동 1819,36.3509954,127.3974071,6
파리바게뜨 대전황실,4.0,6.0,"['bakery', 'food', 'point_of_interest', 'store', 'establishment']",대전 서구 월평동 302,36.3600223,127.3719282,6
파리바게뜨 국화동성,3.8,9.0,"['bakery', 'food', 'point_of_interest', 'store', 'establishment']",대전 서구 둔산동 1809,36.355483,127.399086,6
성심당 롯데백화점대전점,4.5,1752.0,"['bakery', 'food', 'point_of_interest', 'store', 'establishment']",대전 서구 괴정동 423-1,36.34036529999999,127.3901764,6
파리바게뜨 계룡사옥점,1.0,1.0,"['bakery', 'food', 'point_of_interest', 'store', 'establishment']",대전 서구 월평동 861,36.35595989999999,127.364185,6
뚜레쥬르 대전월평다모아,4.1,30.0,"['bakery', 'food', 'point_of_interest', 'store', 'establishment']",대전 서구 월평동 311,36.3626879,127.3676596,6
파리바게뜨 대전만년,3.7,51.0,"['bakery', 'food', 'point_of_interest', 'store', 'establishment']",대전 서구 만년동 1-2,36.3675208,127.3762698,6
던킨도너츠 대전선병원점,3.6,5.0,"['bakery', 'food', 'point_of_interest', 'store', 'establishment']",대전 중구 목동 10-7,36.3359503,127.4102851,3
뚜레쥬르 대전중촌,4.3,8.0,"['bakery', 'food', 'point_of_interest', 'store', 'establishment']",대전 중구 중촌동 412-6,36.3361771,127.4114044,1
파리바게뜨 대전중촌1호,4.2,37.0,"['bakery', 'food', 'point_of_interest', 'store', 'establishment']",대전 중구 목동 8-19,36.33528370000001,127.4120295,1
가슴사랑크리닉,,,"['bakery', 'food', 'point_of_interest', 'store', 'establishment']",대전 서구 둔산동 1179,36.3510023,127.3822552,6
파파호두 대전둔산점,,,"['bakery', 'food', 'point_of_interest', 'store', 'establishment']",대전 서구 둔산동 1413,36.3509675,127.3871025,6
하레하레더오페라점,4.5,4.0,"['bakery', 'food', 'point_of_interest', 'store', 'establishment']",대전 서구 탄방동 587,36.34837150000001,127.3837018,6
허니테이블,,,"['bakery', 'food', 'point_of_interest', 'store', 'establishment']",대전 서구 둔산동 1417,36.3502873,127.3872555,6
파티세리러츠,5.0,1.0,"['bakery', 'food', 'point_of_interest', 'store', 'establishment']",대전 서구 둔산동 1181,36.3507211,127.3816972,6
mr.croffle,5.0,2.0,"['bakery', 'food', 'point_of_interest', 'store', 'establishment']",대전 서구 둔산동 1423,36.3493115,127.3870973,6
빵사부식빵공방시청점,,,"['bakery', 'food', 'point_of_interest', 'store', 'establishment']",대전 서구 둔산동 1423,36.3492852,127.3870962,6
온더케익ONTHECAKE,,,"['bakery', 'food', 'point_of_interest', 'store', 'establishment']",대전 서구 둔산동 1412,36.3515672,127.387114,6
더쥬,,,"['bakery', 'food', 'point_of_interest', 'store', 'establishment']",대전 서구 탄방동 590,36.3481918,127.3861801,6
왕가탕후루 대전시청점,1.0,1.0,"['bakery', 'food', 'point_of_interest', 'store', 'establishment']",대전 서구 둔산동 1453,36.3509397,127.388158,6
롤라리틀베이커리,,,"['bakery', 'food', 'point_of_interest', 'store', 'establishment']",대전 서구 둔산동 1186,36.3507249,127.3805159,6
BINGO 빙고케이크,,,"['bakery', 'food', 'point_of_interest', 'store', 'establishment']",대전 서구 둔산동 1457,36.3514292,127.3886113,6
도넛와이엘랜드,,,"['bakery', 'food', 'point_of_interest', 'store', 'establishment']",대전 서구 둔산동 1398,36.35328309999999,127.3870994,6
코리아팥빵,,,"['bakery', 'food', 'point_of_interest', 'store', 'establishment']",대전 서구 둔산동 1546-1,36.349152,127.3886221,6
삼천제빵,4.1,50.0,"['bakery', 'food', 'point_of_interest', 'store', 'establishment']",대전 서구 둔산동 1397,36.3532794,127.3874359,6
Bakery Coffee,4.0,1.0,"['bakery', 'food', 'point_of_interest', 'store', 'establishment']",대전 서구 둔산동 1397,36.3533046,127.3874247,6
배배꼬 대전시청점,4.5,2.0,"['bakery', 'food', 'point_of_interest', 'store', 'establishment']",대전 서구 둔산동 1432,36.3496141,127.3890188,6
템스,4.0,2.0,"['bakery', 'food', 'point_of_interest', 'store', 'establishment']",대전 서구 둔산동 1248,36.3469566,127.3825935,6
다람당,5.0,2.0,"['bakery', 'food', 'point_of_interest', 'store', 'establishment']",대전 서구 둔산동 1358,36.35260780000001,127.3805328,6
파리바게뜨 대전시청점,,,"['bakery', 'food', 'point_of_interest', 'store', 'establishment']",대전 서구 둔산동 1488,36.35064150000001,127.3893982,6
반갑다과자점,5.0,1.0,"['bakery', 'food', 'point_of_interest', 'store', 'establishment']",대전 서구 둔산동 1203,36.3495719,127.3796083,6
파리바게뜨둔산녹원점,,,"['bakery', 'food', 'point_of_interest', 'store', 'establishment']",대전 서구 둔산동 1204,36.347719,127.3806657,6
마듀,,,"['bakery', 'food', 'point_of_interest', 'store', 'establishment']",대전 서구 둔산동 1483,36.3523562,127.3894356,6
아라미,,,"['bakery', 'food', 'point_of_interest', 'store', 'establishment']",대전 서구 둔산동 1166,36.3508096,127.3786269,6
오페라팡스,,,"['bakery', 'food', 'point_of_interest', 'store', 'establishment']",대전 서구 둔산동 1196,36.3499952,127.3785756,6
뚜레쥬르 대전둔산법원점,4.0,2.0,"['bakery', 'food', 'point_of_interest', 'store', 'establishment']",대전 서구 둔산동 1391,36.3532991,127.38954,6
하레하레 갤러리아 타임월드점,,,"['bakery', 'food', 'point_of_interest', 'store', 'establishment']",대전 서구 둔산동 1036,36.3522066,127.3785343,6
노티드 대전 갤러리아,4.0,16.0,"['bakery', 'food', 'point_of_interest', 'store', 'establishment']",대전 서구 둔산동 1034,36.3526325,127.3787372,6
파리바게뜨 대전중리점,3.7,7.0,"['bakery', 'food', 'point_of_interest', 'store', 'establishment']",대전 대덕구 중리동 369-16,36.3662441,127.4252651,4
파리바게뜨대덕제일,4.0,94.0,"['bakery', 'food', 'point_of_interest', 'store', 'establishment']",대전 대덕구 법동 282-5,36.3707482,127.4279706,4
육일제과,2.7,3.0,"['bakery', 'food', 'point_of_interest', 'store', 'establishment']",대전 대덕구 중리동 372-24,36.3649387,127.4260706,4
뚜레쥬르 대전한숲,2.7,6.0,"['bakery', 'food', 'point_of_interest', 'store', 'establishment']",대전 대덕구 중리동 245-38,36.3556621,127.4287095,4
파리바게뜨선비점,4.1,60.0,"['bakery', 'food', 'point_of_interest', 'store', 'establishment']",대전 대덕구 송촌동 445-4,36.3669318,127.4383414,4
던킨도너츠,4.1,98.0,"['bakery', 'food', 'point_of_interest', 'store', 'establishment']",대전 유성구 전민동 325-2,36.3993786,127.4040996,2
크라운베이커리(전민점),4.3,3.0,"['bakery', 'food', 'point_of_interest', 'store', 'establishment']",대전 유성구 전민동 464-1,36.3998786,127.4068771,2
파리바게뜨 대전전민점,4.4,19.0,"['bakery', 'food', 'point_of_interest', 'store', 'establishment']",대전 유성구 전민동 307-5,36.3993939,127.4031908,2
파리바게뜨 한남대,3.8,206.0,"['bakery', 'food', 'point_of_interest', 'store', 'establishment']",대전 동구 홍도동 102-19,36.3513848,127.4268765,4
뚜레쥬르엑스포점,,,"['bakery', 'food', 'point_of_interest', 'store', 'establishment']",대전 유성구 전민동 466-3,36.3999341,127.4057661,2
천성호두과자,,,"['bakery', 'food', 'point_of_interest', 'store', 'establishment']",대전 대덕구 대화동 39-1,36.3668126,127.4131339,2
솔로몬베이커리,,,"['bakery', 'food', 'point_of_interest', 'store', 'establishment']",대전 대덕구 대화동 37-12,36.36754929999999,127.4157104,2
이용민과자점,,,"['bakery', 'food', 'point_of_interest', 'store', 'establishment']",대전 대덕구 대화동 238-5,36.36432200000001,127.4110298,6
행복베이커리,,,"['bakery', 'food', 'point_of_interest', 'store', 'establishment']",대전 대덕구 대화동 283-7,36.3631052,127.4039061,6
하람케이크,,,"['bakery', 'food', 'point_of_interest', 'store', 'establishment']",대전 대덕구 법동 389,36.3748963,127.4265973,4
벌꾸과자점,3.4,14.0,"['bakery', 'food', 'point_of_interest', 'store', 'establishment']",대전 대덕구 법동 281,36.3727989,127.4266259,4
디아베이커리,,,"['bakery', 'food', 'point_of_interest', 'store', 'establishment']",대전 대덕구 법동 448,36.3676244,127.4249468,4
데쎄르베이커리,,,"['bakery', 'food', 'point_of_interest', 'store', 'establishment']",대전 대덕구 오정동 55-5,36.3604353,127.4142136,6
미스터베이커리,,,"['bakery', 'food', 'point_of_interest', 'store', 'establishment']",대전 대덕구 법동 281,36.3731079,127.427269,4
내가잘가는빵집,4.3,4.0,"['bakery', 'food', 'point_of_interest', 'store', 'establishment']",대전 대덕구 읍내동 54,36.3789092,127.4262091,2
화이트베이커리,5.0,2.0,"['bakery', 'food', 'point_of_interest', 'store', 'establishment']",대전 대덕구 읍내동 54,36.378937,127.4262369,2
신라당제과점,4.7,7.0,"['bakery', 'food', 'point_of_interest', 'store', 'establishment']",대전 대덕구 법동 284-6,36.3695717,127.4269606,4
구워담다,,,"['bakery', 'food', 'point_of_interest', 'store', 'establishment']",대전 대덕구 오정동 61-9,36.3588223,127.4118891,6
오병이어베리커리,,,"['bakery', 'food', 'point_of_interest', 'store', 'establishment']",대전 대덕구 중리동 369-4,36.365883,127.4257373,4
레프쿠헨과자점,3.0,1.0,"['bakery', 'food', 'point_of_interest', 'store', 'establishment']",대전 대덕구 중리동 442-3,36.3608835,127.4209323,4
던킨도너츠,,,"['bakery', 'food', 'point_of_interest', 'store', 'establishment']",대전 대덕구 법동 285-3,36.36828589999999,127.4287207,4
프랑블랑케이크,4.7,20.0,"['bakery', 'food', 'point_of_interest', 'store', 'establishment']",대전 대덕구 오정동 65-14,36.3577513,127.4140142,6
돌체도너츠법동점,,,"['bakery', 'food', 'point_of_interest', 'store', 'establishment']",대전 대덕구 법동 440-4,36.3728041,127.4300796,4
플라워케이크랩모두,,,"['bakery', 'food', 'point_of_interest', 'store', 'establishment']",대전 서구 둔산동 909,36.3590963,127.3972269,6
대전광역시대전대덕구중리동뚜레쥬르,,,"['bakery', 'food', 'point_of_interest', 'store', 'establishment']",대전 대덕구 중리동 160-6,36.36140779999999,127.425497,4
뚜레쥬르 대전상록,,,"['bakery', 'food', 'point_of_interest', 'store', 'establishment']",대전 서구 둔산동 908,36.3612719,127.3932683,6
맛샘방베이커리,,,"['bakery', 'food', 'point_of_interest', 'store', 'establishment']",대전 대덕구 법동 199-12,36.36677189999999,127.4316811,4
샤롯트베이커리,3.8,5.0,"['bakery', 'food', 'point_of_interest', 'store', 'establishment']",대전 대덕구 중리동 197-1,36.3606614,127.4274317,4
케익이피다,,,"['bakery', 'food', 'point_of_interest', 'store', 'establishment']",대전 서구 둔산동 1805,36.3564556,127.3981108,6
쌍마제과,,,"['bakery', 'food', 'point_of_interest', 'store', 'establishment']",대전 대덕구 중리동 238-13,36.358134,127.4266263,4
던킨한남대점,,,"['bakery', 'food', 'point_of_interest', 'store', 'establishment']",대전 대덕구 중리동 250-1,36.3580739,127.4272098,4
빵과사람들,4.5,4.0,"['bakery', 'food', 'point_of_interest', 'store', 'establishment']",대전 대덕구 중리동 110-7,36.36220369999999,127.4325449,4
심봉사도로케 한남대점,5.0,1.0,"['bakery', 'food', 'point_of_interest', 'store', 'establishment']",대전 대덕구 중리동 248-1,36.3570663,127.4273549,4
구뜨과자점,,,"['bakery', 'food', 'point_of_interest', 'store', 'establishment']",대전 서구 둔산동 1809,36.35408410000001,127.3973402,6
라이트앤솔트,,,"['bakery', 'food', 'point_of_interest', 'store', 'establishment']",대전 대덕구 중리동 241-14,36.3565991,127.4271181,4
미솜베이킹,,,"['bakery', 'food', 'point_of_interest', 'store', 'establishment']",대전 대덕구 중리동 253-4,36.35820439999999,127.4296212,4
던킨송촌점,,,"['bakery', 'food', 'point_of_interest', 'store', 'establishment']",대전 대덕구 송촌동 449-2,36.3660702,127.4367769,4
크라운베이커리 와동점,,,"['bakery', 'food', 'store', 'point_of_interest', 'establishment']",대전 대덕구 와동 372-7,36.4008232,127.4230699,2
크라운베이커리(전민점),4.3,3.0,"['bakery', 'food', 'store', 'point_of_interest', 'establishment']",대전 유성구 전민동 464-1,36.3998786,127.4068771,2
뚜레쥬르엑스포점,,,"['bakery', 'food', 'store', 'point_of_interest', 'establishment']",대전 유성구 전민동 466-3,36.3999341,127.4057661,2
던킨도너츠,4.1,98.0,"['bakery', 'food', 'store', 'point_of_interest', 'establishment']",대전 유성구 전민동 325-2,36.3993786,127.4040996,2
파리바게뜨 대전전민점,4.4,19.0,"['bakery', 'food', 'store', 'point_of_interest', 'establishment']",대전 유성구 전민동 307-5,36.3993939,127.4031908,2
파리바게뜨대덕제일,4.0,94.0,"['bakery', 'food', 'store', 'point_of_interest', 'establishment']",대전 대덕구 법동 282-5,36.3707482,127.4279706,4
달배기 꽈배기 와동점,5.0,2.0,"['bakery', 'food', 'store', 'point_of_interest', 'establishment']",대전 대덕구 와동 369-1,36.4012713,127.4236387,2
바네뜨베이커리,,,"['bakery', 'food', 'store', 'point_of_interest', 'establishment']",대전 대덕구 신대동 216,36.3994067,127.4227922,2
화이트베이커리,5.0,2.0,"['bakery', 'food', 'store', 'point_of_interest', 'establishment']",대전 대덕구 읍내동 54,36.378937,127.4262369,2
내가잘가는빵집,4.3,4.0,"['bakery', 'food', 'store', 'point_of_interest', 'establishment']",대전 대덕구 읍내동 54,36.3789092,127.4262091,2
르구떼브레드,5.0,10.0,"['bakery', 'food', 'store', 'point_of_interest', 'establishment']",대전 유성구 문지동 643-2,36.3961281,127.4088299,2
홀리스피릿,,,"['bakery', 'food', 'store', 'point_of_interest', 'establishment']",대전 유성구 전민동 464-1,36.3999648,127.40791,2
쉬즈베이글 문지점,4.2,5.0,"['bakery', 'food', 'store', 'point_of_interest', 'establishment']",대전 유성구 문지동 636-7,36.3948587,127.4067977,2
오르엔쿠잉,4.7,3.0,"['bakery', 'food', 'store', 'point_of_interest', 'establishment']",대전 유성구 문지동 650-5,36.39404069999999,127.4067967,2
하람케이크,,,"['bakery', 'food', 'store', 'point_of_interest', 'establishment']",대전 대덕구 법동 389,36.3748963,127.4265973,4
독일베이커리,,,"['bakery', 'food', 'store', 'point_of_interest', 'establishment']",대전 유성구 전민동 466-3,36.3999585,127.4056852,2
일랑일랑,5.0,1.0,"['bakery', 'food', 'store', 'point_of_interest', 'establishment']",대전 유성구 전민동 466-3,36.3999585,127.4056852,2
버터버니 쿠키앤커피,5.0,1.0,"['bakery', 'food', 'store', 'point_of_interest', 'establishment']",대전 유성구 전민동 385-2,36.39761710000001,127.4045715,2
르네상스,,,"['bakery', 'food', 'store', 'point_of_interest', 'establishment']",대전 유성구 전민동 325-17,36.3979066,127.4045718,2
돌체도너츠법동점,,,"['bakery', 'food', 'store', 'point_of_interest', 'establishment']",대전 대덕구 법동 440-4,36.3728041,127.4300796,4
쿠키벨리 (CookieBelly),,,"['bakery', 'food', 'point_of_interest', 'store', 'establishment']",대전 유성구 전민동 370-6,36.3973135,127.4038382,2
요니케이크,,,"['bakery', 'food', 'point_of_interest', 'store', 'establishment']",대전 유성구 전민동 448-13,36.3965064,127.403434,2
쭈케이크,5.0,1.0,"['bakery', 'food', 'point_of_interest', 'store', 'establishment']",대전 유성구 전민동 458-5,36.3966449,127.4019346,2
슬로우브레드,4.5,248.0,"['bakery', 'food', 'point_of_interest', 'store', 'establishment']",대전 유성구 전민동 304-6,36.39939339999999,127.4019221,2
파리바게뜨 대전산성,4.5,18.0,"['bakery', 'food', 'store', 'point_of_interest', 'establishment']",대전 중구 산성동 121-9,36.3043064,127.3859094,3
파리바게뜨대전문화점,4.0,35.0,"['bakery', 'food', 'store', 'point_of_interest', 'establishment']",대전 중구 문화동 557-11,36.30708,127.3980525,3
파리바게뜨 도마시장점,3.7,19.0,"['bakery', 'food', 'store', 'point_of_interest', 'establishment']",대전 서구 도마동 175-14,36.3126886,127.381442,3
뚜레쥬르 대전복수목화점,4.2,23.0,"['bakery', 'food', 'store', 'point_of_interest', 'establishment']",대전 서구 복수동 274-1,36.3085557,127.3739938,3
파리바게뜨 대전정림,3.7,24.0,"['bakery', 'food', 'store', 'point_of_interest', 'establishment']",대전 서구 정림동 585-1,36.3060003,127.3654391,3
파리바게뜨 삼부프라자점,4.1,18.0,"['bakery', 'food', 'store', 'point_of_interest', 'establishment']",대전 중구 태평동 395-1,36.3232209,127.3934638,3
파리바게뜨 대전도마점,3.8,25.0,"['bakery', 'food', 'store', 'point_of_interest', 'establishment']",대전 서구 도마동 211,36.3220587,127.3699132,3
파리바게뜨 대전태평,4.5,6.0,"['bakery', 'food', 'store', 'point_of_interest', 'establishment']",대전 중구 유천동 189-5,36.322576,127.3987464,3
파리바게트 대전세이백화점,2.5,2.0,"['bakery', 'food', 'store', 'point_of_interest', 'establishment']",대전 중구 문화동 1-16,36.3209715,127.4089346,3
파리바게뜨 대전삼성,4.2,32.0,"['bakery', 'food', 'store', 'point_of_interest', 'establishment']",대전 중구 오류동 162-1,36.3223602,127.4079624,3
빵바구니제과점,,,"['bakery', 'food', 'store', 'point_of_interest', 'establishment']",대전 중구 산성동 120-10,36.3043341,127.3840207,3
스마일베이커리,,,"['bakery', 'food', 'store', 'point_of_interest', 'establishment']",대전 중구 산성동 270-2,36.3023001,127.385982,3
늘솜베이커리,5.0,1.0,"['bakery', 'food', 'store', 'point_of_interest', 'establishment']",대전 중구 산성동 280-2,36.3048782,127.3878269,3
우리동네빵집,,,"['bakery', 'food', 'store', 'point_of_interest', 'establishment']",대전 중구 산성동 283-15,36.3061021,127.3880166,3
라빈케이크,,,"['bakery', 'food', 'store', 'point_of_interest', 'establishment']",대전 서구 복수동 612,36.3014222,127.3803773,3
이봉구케익과자점,4.7,11.0,"['bakery', 'food', 'store', 'point_of_interest', 'establishment']",대전 서구 복수동 486,36.30005719999999,127.3783528,3
지브로케이크,,,"['bakery', 'food', 'store', 'point_of_interest', 'establishment']",대전 중구 산성동 160-1,36.30968170000001,127.3885031,3
솔트앤스낵,,,"['bakery', 'food', 'store', 'point_of_interest', 'establishment']",대전 서구 복수동 649,36.2980955,127.3790364,3
덴버베이커리,3.0,1.0,"['bakery', 'food', 'store', 'point_of_interest', 'establishment']",대전 서구 도마동 180-2,36.3113611,127.3837983,3
가보자빵집에11호점,,,"['bakery', 'food', 'point_of_interest', 'store', 'establishment']",대전 중구 사정동 458-1,36.2960219,127.3835073,3
눈꽃피다,,,"['bakery', 'food', 'point_of_interest', 'store', 'establishment']",대전 서구 복수동 513,36.29864989999999,127.3772294,3
티에치,,,"['bakery', 'food', 'point_of_interest', 'store', 'establishment']",대전 중구 사정동 425-9,36.2965541,127.3888683,3
티투,,,"['bakery', 'food', 'point_of_interest', 'store', 'establishment']",대전 서구 도마동 181-9,36.312148,127.3817579,3
우성빵굼터,,,"['bakery', 'food', 'point_of_interest', 'store', 'establishment']",대전 중구 산성동 37-1,36.3093059,127.3930475,3
용떡이,,,"['bakery', 'food', 'point_of_interest', 'store', 'establishment']",대전 서구 복수동 283-342,36.3094895,127.3750414,3
파리바게트복수자이점,,,"['bakery', 'food', 'point_of_interest', 'store', 'establishment']",대전 서구 복수동 1004,36.3059448,127.3729446,3
케익하우스앨리,,,"['bakery', 'food', 'point_of_interest', 'store', 'establishment']",대전 서구 복수동 274-1,36.30961109999999,127.3747159,3
한밭한과과자,,,"['bakery', 'food', 'point_of_interest', 'store', 'establishment']",대전 서구 도마동 134-62,36.3151438,127.3830037,3
독일베이커리,2.0,1.0,"['bakery', 'food', 'point_of_interest', 'store', 'establishment']",대전 서구 도마동 134-6,36.3159438,127.3828261,3
돌체도너츠,,,"['bakery', 'food', 'point_of_interest', 'store', 'establishment']",대전 서구 도마동 129-9,36.3153935,127.3793591,3
동원제과,,,"['bakery', 'food', 'point_of_interest', 'store', 'establishment']",대전 서구 도마동 134-1,36.316378,127.3823659,3
파리의연인,,,"['bakery', 'food', 'point_of_interest', 'store', 'establishment']",대전 서구 도마동 130-9,36.3163528,127.3799395,3
